{
  "type": "FeatureCollection",
  "note": "전국 목욕장업(영업중) · 행안부 공개데이터 · EPSG:5174→4326",
  "features": [
    {
      "type": "Feature",
      "properties": {
        "name": "대호대중사우나",
        "category": "목욕장업",
        "subtype": "대중목욕탕"
      },
      "geometry": {
        "type": "Point",
        "coordinates": [
          126.973257,
          37.572775
        ]
      }
    },
    {
      "type": "Feature",
      "properties": {
        "name": "백상대중탕",
        "category": "목욕장업",
        "subtype": "대중목욕탕"
      },
      "geometry": {
        "type": "Point",
        "coordinates": [
          126.985212,
          37.573087
        ]
      }
    },
    {
      "type": "Feature",
      "properties": {
        "name": "명성사우나",
        "category": "목욕장업",
        "subtype": "대중목욕탕"
      },
      "geometry": {
        "type": "Point",
        "coordinates": [
          126.996367,
          37.588129
        ]
      }
    },
    {
      "type": "Feature",
      "properties": {
        "name": "스페이스본사우나",
        "category": "목욕장업",
        "subtype": "찜질방"
      },
      "geometry": {
        "type": "Point",
        "coordinates": [
          126.968881,
          37.574417
        ]
      }
    },
    {
      "type": "Feature",
      "properties": {
        "name": "호텔 이비스앰배서더 인사동",
        "category": "목욕장업",
        "subtype": "대중목욕탕"
      },
      "geometry": {
        "type": "Point",
        "coordinates": [
          126.989462,
          37.574417
        ]
      }
    },
    {
      "type": "Feature",
      "properties": {
        "name": "종로노인종합복지관",
        "category": "목욕장업",
        "subtype": "목욕장업"
      },
      "geometry": {
        "type": "Point",
        "coordinates": [
          127.006025,
          37.57673
        ]
      }
    },
    {
      "type": "Feature",
      "properties": {
        "name": "도미인 서울 인사동 사우나",
        "category": "목욕장업",
        "subtype": "대중목욕탕"
      },
      "geometry": {
        "type": "Point",
        "coordinates": [
          126.987179,
          37.57237
        ]
      }
    },
    {
      "type": "Feature",
      "properties": {
        "name": "오라카이 대학로 호텔",
        "category": "목욕장업",
        "subtype": "대중목욕탕"
      },
      "geometry": {
        "type": "Point",
        "coordinates": [
          126.998766,
          37.575725
        ]
      }
    },
    {
      "type": "Feature",
      "properties": {
        "name": "자마이카 피트니스",
        "category": "목욕장업",
        "subtype": "대중목욕탕"
      },
      "geometry": {
        "type": "Point",
        "coordinates": [
          126.97985,
          37.570459
        ]
      }
    },
    {
      "type": "Feature",
      "properties": {
        "name": "SPA평창",
        "category": "목욕장업",
        "subtype": "대중목욕탕"
      },
      "geometry": {
        "type": "Point",
        "coordinates": [
          126.970767,
          37.607304
        ]
      }
    },
    {
      "type": "Feature",
      "properties": {
        "name": "스파렉스",
        "category": "목욕장업",
        "subtype": "대중목욕탕"
      },
      "geometry": {
        "type": "Point",
        "coordinates": [
          127.015208,
          37.571758
        ]
      }
    },
    {
      "type": "Feature",
      "properties": {
        "name": "국일관 사우나",
        "category": "목욕장업",
        "subtype": "대중목욕탕"
      },
      "geometry": {
        "type": "Point",
        "coordinates": [
          126.989978,
          37.569744
        ]
      }
    },
    {
      "type": "Feature",
      "properties": {
        "name": "광화문미래에셋호텔",
        "category": "목욕장업",
        "subtype": "목욕장업"
      },
      "geometry": {
        "type": "Point",
        "coordinates": [
          126.975421,
          37.570766
        ]
      }
    },
    {
      "type": "Feature",
      "properties": {
        "name": "단오풍정 종로(주)",
        "category": "목욕장업",
        "subtype": "목욕장업"
      },
      "geometry": {
        "type": "Point",
        "coordinates": [
          126.985289,
          37.570606
        ]
      }
    },
    {
      "type": "Feature",
      "properties": {
        "name": "스포짐 광화문",
        "category": "목욕장업",
        "subtype": "목욕장업"
      },
      "geometry": {
        "type": "Point",
        "coordinates": [
          126.972094,
          37.573587
        ]
      }
    },
    {
      "type": "Feature",
      "properties": {
        "name": "에이치짐 신설동역점",
        "category": "목욕장업",
        "subtype": "목욕장업"
      },
      "geometry": {
        "type": "Point",
        "coordinates": [
          127.021151,
          37.57603
        ]
      }
    },
    {
      "type": "Feature",
      "properties": {
        "name": "현대옥사우나",
        "category": "목욕장업",
        "subtype": "대중목욕탕"
      },
      "geometry": {
        "type": "Point",
        "coordinates": [
          127.011022,
          37.57262
        ]
      }
    },
    {
      "type": "Feature",
      "properties": {
        "name": "인왕탕",
        "category": "목욕장업",
        "subtype": "대중목욕탕"
      },
      "geometry": {
        "type": "Point",
        "coordinates": [
          126.970922,
          37.579146
        ]
      }
    },
    {
      "type": "Feature",
      "properties": {
        "name": "은진탕",
        "category": "목욕장업",
        "subtype": "대중목욕탕"
      },
      "geometry": {
        "type": "Point",
        "coordinates": [
          127.022191,
          37.577046
        ]
      }
    },
    {
      "type": "Feature",
      "properties": {
        "name": "코리아탕",
        "category": "목욕장업",
        "subtype": "대중목욕탕"
      },
      "geometry": {
        "type": "Point",
        "coordinates": [
          126.98203,
          37.582121
        ]
      }
    },
    {
      "type": "Feature",
      "properties": {
        "name": "창신대중사우나",
        "category": "목욕장업",
        "subtype": "대중목욕탕"
      },
      "geometry": {
        "type": "Point",
        "coordinates": [
          127.011194,
          37.573308
        ]
      }
    },
    {
      "type": "Feature",
      "properties": {
        "name": "쉐레이 암반수사우나",
        "category": "목욕장업",
        "subtype": "대중목욕탕"
      },
      "geometry": {
        "type": "Point",
        "coordinates": [
          126.956537,
          37.608108
        ]
      }
    },
    {
      "type": "Feature",
      "properties": {
        "name": "종로 사우나",
        "category": "목욕장업",
        "subtype": "대중목욕탕"
      },
      "geometry": {
        "type": "Point",
        "coordinates": [
          126.988489,
          37.574037
        ]
      }
    },
    {
      "type": "Feature",
      "properties": {
        "name": "인사동 한증막",
        "category": "목욕장업",
        "subtype": "대중목욕탕"
      },
      "geometry": {
        "type": "Point",
        "coordinates": [
          126.989088,
          37.575766
        ]
      }
    },
    {
      "type": "Feature",
      "properties": {
        "name": "종로대중사우나",
        "category": "목욕장업",
        "subtype": "대중목욕탕"
      },
      "geometry": {
        "type": "Point",
        "coordinates": [
          126.998083,
          37.572574
        ]
      }
    },
    {
      "type": "Feature",
      "properties": {
        "name": "수석보석사우나",
        "category": "목욕장업",
        "subtype": "대중목욕탕"
      },
      "geometry": {
        "type": "Point",
        "coordinates": [
          127.015686,
          37.577449
        ]
      }
    },
    {
      "type": "Feature",
      "properties": {
        "name": "송림사우나",
        "category": "목욕장업",
        "subtype": "대중목욕탕"
      },
      "geometry": {
        "type": "Point",
        "coordinates": [
          126.968844,
          37.580902
        ]
      }
    },
    {
      "type": "Feature",
      "properties": {
        "name": "에이쓰리 네이쳐",
        "category": "목욕장업",
        "subtype": "목욕장업"
      },
      "geometry": {
        "type": "Point",
        "coordinates": [
          127.0066,
          37.566495
        ]
      }
    },
    {
      "type": "Feature",
      "properties": {
        "name": "헤라스파에스테",
        "category": "목욕장업",
        "subtype": "목욕장업"
      },
      "geometry": {
        "type": "Point",
        "coordinates": [
          126.987957,
          37.561467
        ]
      }
    },
    {
      "type": "Feature",
      "properties": {
        "name": "퍼시픽호텔",
        "category": "목욕장업",
        "subtype": "목욕장업"
      },
      "geometry": {
        "type": "Point",
        "coordinates": [
          126.985442,
          37.559726
        ]
      }
    },
    {
      "type": "Feature",
      "properties": {
        "name": "앰배서더 서울 풀만 호텔 사우나",
        "category": "목욕장업",
        "subtype": "목욕장업"
      },
      "geometry": {
        "type": "Point",
        "coordinates": [
          127.002395,
          37.56018
        ]
      }
    },
    {
      "type": "Feature",
      "properties": {
        "name": "매일온천",
        "category": "목욕장업",
        "subtype": "대중목욕탕"
      },
      "geometry": {
        "type": "Point",
        "coordinates": [
          126.994025,
          37.565758
        ]
      }
    },
    {
      "type": "Feature",
      "properties": {
        "name": "영빈사우나",
        "category": "목욕장업",
        "subtype": "대중목욕탕"
      },
      "geometry": {
        "type": "Point",
        "coordinates": [
          127.00554,
          37.563055
        ]
      }
    },
    {
      "type": "Feature",
      "properties": {
        "name": "수정대중사우나",
        "category": "목욕장업",
        "subtype": "대중목욕탕"
      },
      "geometry": {
        "type": "Point",
        "coordinates": [
          127.009345,
          37.553662
        ]
      }
    },
    {
      "type": "Feature",
      "properties": {
        "name": "서울크럽",
        "category": "목욕장업",
        "subtype": "대중목욕탕"
      },
      "geometry": {
        "type": "Point",
        "coordinates": [
          127.003681,
          37.553109
        ]
      }
    },
    {
      "type": "Feature",
      "properties": {
        "name": "동원대중목욕탕",
        "category": "목욕장업",
        "subtype": "대중목욕탕"
      },
      "geometry": {
        "type": "Point",
        "coordinates": [
          127.013528,
          37.569092
        ]
      }
    },
    {
      "type": "Feature",
      "properties": {
        "name": "(주)조선호텔앤리조트 CAC",
        "category": "목욕장업",
        "subtype": "목욕장업"
      },
      "geometry": {
        "type": "Point",
        "coordinates": [
          126.980099,
          37.564438
        ]
      }
    },
    {
      "type": "Feature",
      "properties": {
        "name": "(주)전은서비스",
        "category": "목욕장업",
        "subtype": "목욕장업"
      },
      "geometry": {
        "type": "Point",
        "coordinates": [
          126.985558,
          37.564943
        ]
      }
    },
    {
      "type": "Feature",
      "properties": {
        "name": "남대문목욕탕",
        "category": "목욕장업",
        "subtype": "대중목욕탕"
      },
      "geometry": {
        "type": "Point",
        "coordinates": [
          126.975887,
          37.557648
        ]
      }
    },
    {
      "type": "Feature",
      "properties": {
        "name": "매경휘트니스클럽",
        "category": "목욕장업",
        "subtype": "대중목욕탕"
      },
      "geometry": {
        "type": "Point",
        "coordinates": [
          126.992842,
          37.56049
        ]
      }
    },
    {
      "type": "Feature",
      "properties": {
        "name": "황금사우나",
        "category": "목욕장업",
        "subtype": "대중목욕탕"
      },
      "geometry": {
        "type": "Point",
        "coordinates": [
          126.986499,
          37.562015
        ]
      }
    },
    {
      "type": "Feature",
      "properties": {
        "name": "(주)호텔신라",
        "category": "목욕장업",
        "subtype": "목욕장업"
      },
      "geometry": {
        "type": "Point",
        "coordinates": [
          127.006035,
          37.55675
        ]
      }
    },
    {
      "type": "Feature",
      "properties": {
        "name": "코리아목욕탕",
        "category": "목욕장업",
        "subtype": "대중목욕탕"
      },
      "geometry": {
        "type": "Point",
        "coordinates": [
          126.998515,
          37.568637
        ]
      }
    },
    {
      "type": "Feature",
      "properties": {
        "name": "하나머드한증막",
        "category": "목욕장업",
        "subtype": "대중목욕탕"
      },
      "geometry": {
        "type": "Point",
        "coordinates": [
          126.992228,
          37.565946
        ]
      }
    },
    {
      "type": "Feature",
      "properties": {
        "name": "동궁사우나",
        "category": "목욕장업",
        "subtype": "목욕장업"
      },
      "geometry": {
        "type": "Point",
        "coordinates": [
          127.013086,
          37.558453
        ]
      }
    },
    {
      "type": "Feature",
      "properties": {
        "name": "명동머드",
        "category": "목욕장업",
        "subtype": "대중목욕탕"
      },
      "geometry": {
        "type": "Point",
        "coordinates": [
          126.983768,
          37.56148
        ]
      }
    },
    {
      "type": "Feature",
      "properties": {
        "name": "레이(Lei)여성사우나",
        "category": "목욕장업",
        "subtype": "대중목욕탕"
      },
      "geometry": {
        "type": "Point",
        "coordinates": [
          127.00928,
          37.549014
        ]
      }
    },
    {
      "type": "Feature",
      "properties": {
        "name": "주신사우나",
        "category": "목욕장업",
        "subtype": "대중목욕탕"
      },
      "geometry": {
        "type": "Point",
        "coordinates": [
          127.019327,
          37.569798
        ]
      }
    },
    {
      "type": "Feature",
      "properties": {
        "name": "명동 서초 한증막",
        "category": "목욕장업",
        "subtype": "목욕장업"
      },
      "geometry": {
        "type": "Point",
        "coordinates": [
          126.984103,
          37.562549
        ]
      }
    },
    {
      "type": "Feature",
      "properties": {
        "name": "정건사우나",
        "category": "목욕장업",
        "subtype": "찜질방"
      },
      "geometry": {
        "type": "Point",
        "coordinates": [
          127.001811,
          37.567109
        ]
      }
    },
    {
      "type": "Feature",
      "properties": {
        "name": "반얀트리사우나(Banyan Tree Sauna)",
        "category": "목욕장업",
        "subtype": "대중목욕탕"
      },
      "geometry": {
        "type": "Point",
        "coordinates": [
          127.000536,
          37.550263
        ]
      }
    },
    {
      "type": "Feature",
      "properties": {
        "name": "(주)스파렉스",
        "category": "목욕장업",
        "subtype": "대중목욕탕"
      },
      "geometry": {
        "type": "Point",
        "coordinates": [
          127.007281,
          37.566873
        ]
      }
    },
    {
      "type": "Feature",
      "properties": {
        "name": "지우스파",
        "category": "목욕장업",
        "subtype": "대중목욕탕"
      },
      "geometry": {
        "type": "Point",
        "coordinates": [
          126.985909,
          37.558729
        ]
      }
    },
    {
      "type": "Feature",
      "properties": {
        "name": "황금스파",
        "category": "목욕장업",
        "subtype": "찜질방"
      },
      "geometry": {
        "type": "Point",
        "coordinates": [
          127.021434,
          37.570978
        ]
      }
    },
    {
      "type": "Feature",
      "properties": {
        "name": "더사우나(The Sauna)",
        "category": "목욕장업",
        "subtype": "대중목욕탕"
      },
      "geometry": {
        "type": "Point",
        "coordinates": [
          126.978109,
          37.563212
        ]
      }
    },
    {
      "type": "Feature",
      "properties": {
        "name": "사우나(sauna)",
        "category": "목욕장업",
        "subtype": "대중목욕탕"
      },
      "geometry": {
        "type": "Point",
        "coordinates": [
          126.976429,
          37.561376
        ]
      }
    },
    {
      "type": "Feature",
      "properties": {
        "name": "(주)센터원웰니스",
        "category": "목욕장업",
        "subtype": "목욕장업"
      },
      "geometry": {
        "type": "Point",
        "coordinates": [
          126.985178,
          37.567421
        ]
      }
    },
    {
      "type": "Feature",
      "properties": {
        "name": "황금사우나 남탕",
        "category": "목욕장업",
        "subtype": "대중목욕탕"
      },
      "geometry": {
        "type": "Point",
        "coordinates": [
          126.986499,
          37.562015
        ]
      }
    },
    {
      "type": "Feature",
      "properties": {
        "name": "버핏그라운드 광화문",
        "category": "목욕장업",
        "subtype": "대중목욕탕"
      },
      "geometry": {
        "type": "Point",
        "coordinates": [
          126.97774,
          37.568428
        ]
      }
    },
    {
      "type": "Feature",
      "properties": {
        "name": "남문 대종탕",
        "category": "목욕장업",
        "subtype": "목욕장업"
      },
      "geometry": {
        "type": "Point",
        "coordinates": [
          126.974673,
          37.55866
        ]
      }
    },
    {
      "type": "Feature",
      "properties": {
        "name": "(주)스포짐을지",
        "category": "목욕장업",
        "subtype": "목욕장업"
      },
      "geometry": {
        "type": "Point",
        "coordinates": [
          126.988078,
          37.566488
        ]
      }
    },
    {
      "type": "Feature",
      "properties": {
        "name": "(주)피트비엠",
        "category": "목욕장업",
        "subtype": "목욕장업"
      },
      "geometry": {
        "type": "Point",
        "coordinates": [
          126.976646,
          37.568302
        ]
      }
    },
    {
      "type": "Feature",
      "properties": {
        "name": "짐구공 헬스 PT 골프 광화문점",
        "category": "목욕장업",
        "subtype": "목욕장업"
      },
      "geometry": {
        "type": "Point",
        "coordinates": [
          126.979552,
          37.567322
        ]
      }
    },
    {
      "type": "Feature",
      "properties": {
        "name": "세신샵 수련",
        "category": "목욕장업",
        "subtype": "목욕장업"
      },
      "geometry": {
        "type": "Point",
        "coordinates": [
          127.016211,
          37.562874
        ]
      }
    },
    {
      "type": "Feature",
      "properties": {
        "name": "어르신헬스케어센터",
        "category": "목욕장업",
        "subtype": "대중목욕탕"
      },
      "geometry": {
        "type": "Point",
        "coordinates": [
          127.013739,
          37.561395
        ]
      }
    },
    {
      "type": "Feature",
      "properties": {
        "name": "이비스앰배서더명동",
        "category": "목욕장업",
        "subtype": "대중목욕탕"
      },
      "geometry": {
        "type": "Point",
        "coordinates": [
          126.983062,
          37.564189
        ]
      }
    },
    {
      "type": "Feature",
      "properties": {
        "name": "A3",
        "category": "목욕장업",
        "subtype": "목욕장업"
      },
      "geometry": {
        "type": "Point",
        "coordinates": [
          126.983918,
          37.561817
        ]
      }
    },
    {
      "type": "Feature",
      "properties": {
        "name": "이비스 스타일 앰배서더 서울 명동",
        "category": "목욕장업",
        "subtype": "목욕장업"
      },
      "geometry": {
        "type": "Point",
        "coordinates": [
          126.989359,
          37.561682
        ]
      }
    },
    {
      "type": "Feature",
      "properties": {
        "name": "(주)빌드업피트니스피티앤드골프서대문역점",
        "category": "목욕장업",
        "subtype": "목욕장업"
      },
      "geometry": {
        "type": "Point",
        "coordinates": [
          126.969655,
          37.563153
        ]
      }
    },
    {
      "type": "Feature",
      "properties": {
        "name": "세신샵 라힌",
        "category": "목욕장업",
        "subtype": "목욕장업"
      },
      "geometry": {
        "type": "Point",
        "coordinates": [
          126.995136,
          37.560795
        ]
      }
    },
    {
      "type": "Feature",
      "properties": {
        "name": "영수탕",
        "category": "목욕장업",
        "subtype": "대중목욕탕"
      },
      "geometry": {
        "type": "Point",
        "coordinates": [
          126.986126,
          37.545245
        ]
      }
    },
    {
      "type": "Feature",
      "properties": {
        "name": "용문사우나",
        "category": "목욕장업",
        "subtype": "대중목욕탕"
      },
      "geometry": {
        "type": "Point",
        "coordinates": [
          126.958817,
          37.538169
        ]
      }
    },
    {
      "type": "Feature",
      "properties": {
        "name": "남산",
        "category": "목욕장업",
        "subtype": "대중목욕탕"
      },
      "geometry": {
        "type": "Point",
        "coordinates": [
          126.991758,
          37.540841
        ]
      }
    },
    {
      "type": "Feature",
      "properties": {
        "name": "하남사우나",
        "category": "목욕장업",
        "subtype": "대중목욕탕"
      },
      "geometry": {
        "type": "Point",
        "coordinates": [
          126.979303,
          37.549319
        ]
      }
    },
    {
      "type": "Feature",
      "properties": {
        "name": "그랜드하얏트서울",
        "category": "목욕장업",
        "subtype": "대중목욕탕"
      },
      "geometry": {
        "type": "Point",
        "coordinates": [
          126.997813,
          37.539544
        ]
      }
    },
    {
      "type": "Feature",
      "properties": {
        "name": "올리브",
        "category": "목욕장업",
        "subtype": "대중목욕탕"
      },
      "geometry": {
        "type": "Point",
        "coordinates": [
          126.967126,
          37.521818
        ]
      }
    },
    {
      "type": "Feature",
      "properties": {
        "name": "리버 사우나",
        "category": "목욕장업",
        "subtype": "대중목욕탕"
      },
      "geometry": {
        "type": "Point",
        "coordinates": [
          126.977112,
          37.518443
        ]
      }
    },
    {
      "type": "Feature",
      "properties": {
        "name": "한남 스파",
        "category": "목욕장업",
        "subtype": "대중목욕탕"
      },
      "geometry": {
        "type": "Point",
        "coordinates": [
          126.98211,
          37.550111
        ]
      }
    },
    {
      "type": "Feature",
      "properties": {
        "name": "도원대중사우나",
        "category": "목욕장업",
        "subtype": "대중목욕탕"
      },
      "geometry": {
        "type": "Point",
        "coordinates": [
          126.957224,
          37.539483
        ]
      }
    },
    {
      "type": "Feature",
      "properties": {
        "name": "주영여성대중목욕탕",
        "category": "목욕장업",
        "subtype": "찜질방"
      },
      "geometry": {
        "type": "Point",
        "coordinates": [
          126.969331,
          37.544143
        ]
      }
    },
    {
      "type": "Feature",
      "properties": {
        "name": "해밀톤사우나",
        "category": "목욕장업",
        "subtype": "대중목욕탕"
      },
      "geometry": {
        "type": "Point",
        "coordinates": [
          126.993588,
          37.534707
        ]
      }
    },
    {
      "type": "Feature",
      "properties": {
        "name": "드래곤힐스파",
        "category": "목욕장업",
        "subtype": "찜질방"
      },
      "geometry": {
        "type": "Point",
        "coordinates": [
          126.964088,
          37.527305
        ]
      }
    },
    {
      "type": "Feature",
      "properties": {
        "name": "(주)원짐",
        "category": "목욕장업",
        "subtype": "대중목욕탕"
      },
      "geometry": {
        "type": "Point",
        "coordinates": [
          126.9556,
          37.531534
        ]
      }
    },
    {
      "type": "Feature",
      "properties": {
        "name": "웰니스짐",
        "category": "목욕장업",
        "subtype": "목욕장업"
      },
      "geometry": {
        "type": "Point",
        "coordinates": [
          126.991233,
          37.539558
        ]
      }
    },
    {
      "type": "Feature",
      "properties": {
        "name": "히즈",
        "category": "목욕장업",
        "subtype": "목욕장업"
      },
      "geometry": {
        "type": "Point",
        "coordinates": [
          126.994708,
          37.53387
        ]
      }
    },
    {
      "type": "Feature",
      "properties": {
        "name": "펜타클(PENTACLE)",
        "category": "목욕장업",
        "subtype": "대중목욕탕"
      },
      "geometry": {
        "type": "Point",
        "coordinates": [
          126.973552,
          37.553409
        ]
      }
    },
    {
      "type": "Feature",
      "properties": {
        "name": "수사우나",
        "category": "목욕장업",
        "subtype": "대중목욕탕"
      },
      "geometry": {
        "type": "Point",
        "coordinates": [
          126.971585,
          37.54555
        ]
      }
    },
    {
      "type": "Feature",
      "properties": {
        "name": "서울드래곤시티 이비스스타일 (사우나)",
        "category": "목욕장업",
        "subtype": "대중목욕탕"
      },
      "geometry": {
        "type": "Point",
        "coordinates": [
          126.962442,
          37.53192
        ]
      }
    },
    {
      "type": "Feature",
      "properties": {
        "name": "유라이크",
        "category": "목욕장업",
        "subtype": "목욕장업"
      },
      "geometry": {
        "type": "Point",
        "coordinates": [
          126.969456,
          37.544282
        ]
      }
    },
    {
      "type": "Feature",
      "properties": {
        "name": "보석한증막",
        "category": "목욕장업",
        "subtype": "목욕장업"
      },
      "geometry": {
        "type": "Point",
        "coordinates": [
          126.99765,
          37.529298
        ]
      }
    },
    {
      "type": "Feature",
      "properties": {
        "name": "은전",
        "category": "목욕장업",
        "subtype": "대중목욕탕"
      },
      "geometry": {
        "type": "Point",
        "coordinates": [
          126.977558,
          37.548548
        ]
      }
    },
    {
      "type": "Feature",
      "properties": {
        "name": "영진사우나",
        "category": "목욕장업",
        "subtype": "대중목욕탕"
      },
      "geometry": {
        "type": "Point",
        "coordinates": [
          126.955324,
          37.525982
        ]
      }
    },
    {
      "type": "Feature",
      "properties": {
        "name": "신호사우나",
        "category": "목욕장업",
        "subtype": "찜질방"
      },
      "geometry": {
        "type": "Point",
        "coordinates": [
          127.000612,
          37.525968
        ]
      }
    },
    {
      "type": "Feature",
      "properties": {
        "name": "성수탕",
        "category": "목욕장업",
        "subtype": "대중목욕탕"
      },
      "geometry": {
        "type": "Point",
        "coordinates": [
          127.056497,
          37.537587
        ]
      }
    },
    {
      "type": "Feature",
      "properties": {
        "name": "금호한증막",
        "category": "목욕장업",
        "subtype": "목욕장업"
      },
      "geometry": {
        "type": "Point",
        "coordinates": [
          127.020504,
          37.547271
        ]
      }
    },
    {
      "type": "Feature",
      "properties": {
        "name": "근화탕",
        "category": "목욕장업",
        "subtype": "대중목욕탕"
      },
      "geometry": {
        "type": "Point",
        "coordinates": [
          127.050632,
          37.538366
        ]
      }
    },
    {
      "type": "Feature",
      "properties": {
        "name": "현대탕",
        "category": "목욕장업",
        "subtype": "대중목욕탕"
      },
      "geometry": {
        "type": "Point",
        "coordinates": [
          127.055146,
          37.543948
        ]
      }
    },
    {
      "type": "Feature",
      "properties": {
        "name": "현대대중목욕탕",
        "category": "목욕장업",
        "subtype": "대중목욕탕"
      },
      "geometry": {
        "type": "Point",
        "coordinates": [
          127.030954,
          37.551047
        ]
      }
    },
    {
      "type": "Feature",
      "properties": {
        "name": "라성보석사우나",
        "category": "목욕장업",
        "subtype": "대중목욕탕"
      },
      "geometry": {
        "type": "Point",
        "coordinates": [
          127.057818,
          37.545193
        ]
      }
    },
    {
      "type": "Feature",
      "properties": {
        "name": "대성탕",
        "category": "목욕장업",
        "subtype": "대중목욕탕"
      },
      "geometry": {
        "type": "Point",
        "coordinates": [
          127.053008,
          37.53749
        ]
      }
    },
    {
      "type": "Feature",
      "properties": {
        "name": "홍보석불가마사우나",
        "category": "목욕장업",
        "subtype": "대중목욕탕"
      },
      "geometry": {
        "type": "Point",
        "coordinates": [
          127.026531,
          37.547725
        ]
      }
    },
    {
      "type": "Feature",
      "properties": {
        "name": "(주)옥수투엑스휘트니스",
        "category": "목욕장업",
        "subtype": "대중목욕탕"
      },
      "geometry": {
        "type": "Point",
        "coordinates": [
          127.011736,
          37.540637
        ]
      }
    },
    {
      "type": "Feature",
      "properties": {
        "name": "성수불막사우나",
        "category": "목욕장업",
        "subtype": "대중목욕탕"
      },
      "geometry": {
        "type": "Point",
        "coordinates": [
          127.065305,
          37.545381
        ]
      }
    },
    {
      "type": "Feature",
      "properties": {
        "name": "옥수웰빙사우나",
        "category": "목욕장업",
        "subtype": "대중목욕탕"
      },
      "geometry": {
        "type": "Point",
        "coordinates": [
          127.012018,
          37.542026
        ]
      }
    },
    {
      "type": "Feature",
      "properties": {
        "name": "서울숲참숫가마사우나",
        "category": "목욕장업",
        "subtype": "대중목욕탕"
      },
      "geometry": {
        "type": "Point",
        "coordinates": [
          127.043597,
          37.547916
        ]
      }
    },
    {
      "type": "Feature",
      "properties": {
        "name": "쉐르빌사우나",
        "category": "목욕장업",
        "subtype": "대중목욕탕"
      },
      "geometry": {
        "type": "Point",
        "coordinates": [
          127.034936,
          37.564393
        ]
      }
    },
    {
      "type": "Feature",
      "properties": {
        "name": "한신옥사우나",
        "category": "목욕장업",
        "subtype": "대중목욕탕"
      },
      "geometry": {
        "type": "Point",
        "coordinates": [
          127.028379,
          37.562353
        ]
      }
    },
    {
      "type": "Feature",
      "properties": {
        "name": "사근동공공복합청사 작은목욕탕",
        "category": "목욕장업",
        "subtype": "대중목욕탕"
      },
      "geometry": {
        "type": "Point",
        "coordinates": [
          127.0453,
          37.561403
        ]
      }
    },
    {
      "type": "Feature",
      "properties": {
        "name": "성동구립용답체육센터 목욕탕",
        "category": "목욕장업",
        "subtype": "대중목욕탕"
      },
      "geometry": {
        "type": "Point",
        "coordinates": [
          127.056635,
          37.561562
        ]
      }
    },
    {
      "type": "Feature",
      "properties": {
        "name": "해빗",
        "category": "목욕장업",
        "subtype": "목욕장업"
      },
      "geometry": {
        "type": "Point",
        "coordinates": [
          127.027636,
          37.56509
        ]
      }
    },
    {
      "type": "Feature",
      "properties": {
        "name": "센트리얼 사우나",
        "category": "목욕장업",
        "subtype": "찜질방"
      },
      "geometry": {
        "type": "Point",
        "coordinates": [
          127.018192,
          37.542309
        ]
      }
    },
    {
      "type": "Feature",
      "properties": {
        "name": "우정탕",
        "category": "목욕장업",
        "subtype": "대중목욕탕"
      },
      "geometry": {
        "type": "Point",
        "coordinates": [
          127.084152,
          37.560228
        ]
      }
    },
    {
      "type": "Feature",
      "properties": {
        "name": "진아보석사우나",
        "category": "목욕장업",
        "subtype": "찜질방"
      },
      "geometry": {
        "type": "Point",
        "coordinates": [
          127.077994,
          37.534138
        ]
      }
    },
    {
      "type": "Feature",
      "properties": {
        "name": "헬스사우나",
        "category": "목욕장업",
        "subtype": "목욕장업"
      },
      "geometry": {
        "type": "Point",
        "coordinates": [
          127.111324,
          37.555686
        ]
      }
    },
    {
      "type": "Feature",
      "properties": {
        "name": "경원탕",
        "category": "목욕장업",
        "subtype": "대중목욕탕"
      },
      "geometry": {
        "type": "Point",
        "coordinates": [
          127.085842,
          37.560648
        ]
      }
    },
    {
      "type": "Feature",
      "properties": {
        "name": "매일온천탕",
        "category": "목욕장업",
        "subtype": "대중목욕탕"
      },
      "geometry": {
        "type": "Point",
        "coordinates": [
          127.089182,
          37.556891
        ]
      }
    },
    {
      "type": "Feature",
      "properties": {
        "name": "비취보석대중탕",
        "category": "목욕장업",
        "subtype": "대중목욕탕"
      },
      "geometry": {
        "type": "Point",
        "coordinates": [
          127.071276,
          37.534244
        ]
      }
    },
    {
      "type": "Feature",
      "properties": {
        "name": "건강대중탕",
        "category": "목욕장업",
        "subtype": "대중목욕탕"
      },
      "geometry": {
        "type": "Point",
        "coordinates": [
          127.075101,
          37.533685
        ]
      }
    },
    {
      "type": "Feature",
      "properties": {
        "name": "실로암 목욕장",
        "category": "목욕장업",
        "subtype": "대중목욕탕"
      },
      "geometry": {
        "type": "Point",
        "coordinates": [
          127.085536,
          37.569038
        ]
      }
    },
    {
      "type": "Feature",
      "properties": {
        "name": "광명대중사우나",
        "category": "목욕장업",
        "subtype": "대중목욕탕"
      },
      "geometry": {
        "type": "Point",
        "coordinates": [
          127.081072,
          37.570893
        ]
      }
    },
    {
      "type": "Feature",
      "properties": {
        "name": "프라임 노다지 사우나",
        "category": "목욕장업",
        "subtype": "찜질방"
      },
      "geometry": {
        "type": "Point",
        "coordinates": [
          127.097621,
          37.537398
        ]
      }
    },
    {
      "type": "Feature",
      "properties": {
        "name": "세종대중목욕탕",
        "category": "목욕장업",
        "subtype": "대중목욕탕"
      },
      "geometry": {
        "type": "Point",
        "coordinates": [
          127.072081,
          37.552588
        ]
      }
    },
    {
      "type": "Feature",
      "properties": {
        "name": "레몬사우나",
        "category": "목욕장업",
        "subtype": "대중목욕탕"
      },
      "geometry": {
        "type": "Point",
        "coordinates": [
          127.098604,
          37.540621
        ]
      }
    },
    {
      "type": "Feature",
      "properties": {
        "name": "한빛대중사우나",
        "category": "목욕장업",
        "subtype": "찜질방"
      },
      "geometry": {
        "type": "Point",
        "coordinates": [
          127.08826,
          37.557649
        ]
      }
    },
    {
      "type": "Feature",
      "properties": {
        "name": "칠산레져대중사우나",
        "category": "목욕장업",
        "subtype": "찜질방"
      },
      "geometry": {
        "type": "Point",
        "coordinates": [
          127.082916,
          37.53983
        ]
      }
    },
    {
      "type": "Feature",
      "properties": {
        "name": "강변스파랜드 24시 불가마",
        "category": "목욕장업",
        "subtype": "찜질방"
      },
      "geometry": {
        "type": "Point",
        "coordinates": [
          127.091256,
          37.534982
        ]
      }
    },
    {
      "type": "Feature",
      "properties": {
        "name": "우리유황온천",
        "category": "목욕장업",
        "subtype": "대중목욕탕"
      },
      "geometry": {
        "type": "Point",
        "coordinates": [
          127.084153,
          37.530906
        ]
      }
    },
    {
      "type": "Feature",
      "properties": {
        "name": "호수목욕탕",
        "category": "목욕장업",
        "subtype": "대중목욕탕"
      },
      "geometry": {
        "type": "Point",
        "coordinates": [
          127.094547,
          37.559107
        ]
      }
    },
    {
      "type": "Feature",
      "properties": {
        "name": "건국 AMC The Classic 500",
        "category": "목욕장업",
        "subtype": "대중목욕탕"
      },
      "geometry": {
        "type": "Point",
        "coordinates": [
          127.071137,
          37.538789
        ]
      }
    },
    {
      "type": "Feature",
      "properties": {
        "name": "더케이짐",
        "category": "목욕장업",
        "subtype": "대중목욕탕"
      },
      "geometry": {
        "type": "Point",
        "coordinates": [
          127.091374,
          37.534204
        ]
      }
    },
    {
      "type": "Feature",
      "properties": {
        "name": "건대스타시티몰 사우나",
        "category": "목욕장업",
        "subtype": "대중목욕탕"
      },
      "geometry": {
        "type": "Point",
        "coordinates": [
          127.072632,
          37.537803
        ]
      }
    },
    {
      "type": "Feature",
      "properties": {
        "name": "현대프라임스포츠센타",
        "category": "목욕장업",
        "subtype": "대중목욕탕"
      },
      "geometry": {
        "type": "Point",
        "coordinates": [
          127.095874,
          37.538627
        ]
      }
    },
    {
      "type": "Feature",
      "properties": {
        "name": "(주)비터스윗코리아",
        "category": "목욕장업",
        "subtype": "대중목욕탕"
      },
      "geometry": {
        "type": "Point",
        "coordinates": [
          127.094819,
          37.539901
        ]
      }
    },
    {
      "type": "Feature",
      "properties": {
        "name": "(주)비스코 헬스케어",
        "category": "목욕장업",
        "subtype": "목욕장업"
      },
      "geometry": {
        "type": "Point",
        "coordinates": [
          127.098604,
          37.540621
        ]
      }
    },
    {
      "type": "Feature",
      "properties": {
        "name": "단지",
        "category": "목욕장업",
        "subtype": "목욕장업"
      },
      "geometry": {
        "type": "Point",
        "coordinates": [
          127.091945,
          37.539044
        ]
      }
    },
    {
      "type": "Feature",
      "properties": {
        "name": "유성탕",
        "category": "목욕장업",
        "subtype": "대중목욕탕"
      },
      "geometry": {
        "type": "Point",
        "coordinates": [
          127.066894,
          37.57675
        ]
      }
    },
    {
      "type": "Feature",
      "properties": {
        "name": "이문탕",
        "category": "목욕장업",
        "subtype": "대중목욕탕"
      },
      "geometry": {
        "type": "Point",
        "coordinates": [
          127.065155,
          37.602823
        ]
      }
    },
    {
      "type": "Feature",
      "properties": {
        "name": "홍능탕",
        "category": "목욕장업",
        "subtype": "대중목욕탕"
      },
      "geometry": {
        "type": "Point",
        "coordinates": [
          127.040793,
          37.588052
        ]
      }
    },
    {
      "type": "Feature",
      "properties": {
        "name": "진호목욕탕",
        "category": "목욕장업",
        "subtype": "대중목욕탕"
      },
      "geometry": {
        "type": "Point",
        "coordinates": [
          127.04147,
          37.576295
        ]
      }
    },
    {
      "type": "Feature",
      "properties": {
        "name": "장안탕",
        "category": "목욕장업",
        "subtype": "대중목욕탕"
      },
      "geometry": {
        "type": "Point",
        "coordinates": [
          127.074855,
          37.572387
        ]
      }
    },
    {
      "type": "Feature",
      "properties": {
        "name": "황토와소나무불한증막",
        "category": "목욕장업",
        "subtype": "찜질방"
      },
      "geometry": {
        "type": "Point",
        "coordinates": [
          127.065841,
          37.579116
        ]
      }
    },
    {
      "type": "Feature",
      "properties": {
        "name": "백두산옥사우나",
        "category": "목욕장업",
        "subtype": "대중목욕탕"
      },
      "geometry": {
        "type": "Point",
        "coordinates": [
          127.060466,
          37.576642
        ]
      }
    },
    {
      "type": "Feature",
      "properties": {
        "name": "아담",
        "category": "목욕장업",
        "subtype": "대중목욕탕"
      },
      "geometry": {
        "type": "Point",
        "coordinates": [
          127.024873,
          37.576437
        ]
      }
    },
    {
      "type": "Feature",
      "properties": {
        "name": "동아연수24시사우나",
        "category": "목욕장업",
        "subtype": "찜질방"
      },
      "geometry": {
        "type": "Point",
        "coordinates": [
          127.045704,
          37.574882
        ]
      }
    },
    {
      "type": "Feature",
      "properties": {
        "name": "수안보기암반수사우나",
        "category": "목욕장업",
        "subtype": "대중목욕탕"
      },
      "geometry": {
        "type": "Point",
        "coordinates": [
          127.032403,
          37.578529
        ]
      }
    },
    {
      "type": "Feature",
      "properties": {
        "name": "목련",
        "category": "목욕장업",
        "subtype": "찜질방"
      },
      "geometry": {
        "type": "Point",
        "coordinates": [
          127.057944,
          37.574043
        ]
      }
    },
    {
      "type": "Feature",
      "properties": {
        "name": "워터피아",
        "category": "목욕장업",
        "subtype": "대중목욕탕"
      },
      "geometry": {
        "type": "Point",
        "coordinates": [
          127.069481,
          37.571267
        ]
      }
    },
    {
      "type": "Feature",
      "properties": {
        "name": "휴맥스",
        "category": "목욕장업",
        "subtype": "대중목욕탕"
      },
      "geometry": {
        "type": "Point",
        "coordinates": [
          127.067076,
          37.564622
        ]
      }
    },
    {
      "type": "Feature",
      "properties": {
        "name": "동현보석사우나",
        "category": "목욕장업",
        "subtype": "대중목욕탕"
      },
      "geometry": {
        "type": "Point",
        "coordinates": [
          127.048417,
          37.583736
        ]
      }
    },
    {
      "type": "Feature",
      "properties": {
        "name": "청계스포츠",
        "category": "목욕장업",
        "subtype": "대중목욕탕"
      },
      "geometry": {
        "type": "Point",
        "coordinates": [
          127.026349,
          37.574595
        ]
      }
    },
    {
      "type": "Feature",
      "properties": {
        "name": "휘경인삼사우나",
        "category": "목욕장업",
        "subtype": "찜질방"
      },
      "geometry": {
        "type": "Point",
        "coordinates": [
          127.066494,
          37.591776
        ]
      }
    },
    {
      "type": "Feature",
      "properties": {
        "name": "MJ24불가마스파랜드",
        "category": "목욕장업",
        "subtype": "목욕장업"
      },
      "geometry": {
        "type": "Point",
        "coordinates": [
          127.053669,
          37.588656
        ]
      }
    },
    {
      "type": "Feature",
      "properties": {
        "name": "연지사우나",
        "category": "목욕장업",
        "subtype": "목욕장업"
      },
      "geometry": {
        "type": "Point",
        "coordinates": [
          127.03651,
          37.578523
        ]
      }
    },
    {
      "type": "Feature",
      "properties": {
        "name": "뽀얀세신샵",
        "category": "목욕장업",
        "subtype": "목욕장업"
      },
      "geometry": {
        "type": "Point",
        "coordinates": [
          127.057802,
          37.592385
        ]
      }
    },
    {
      "type": "Feature",
      "properties": {
        "name": "현대대중목욕탕",
        "category": "목욕장업",
        "subtype": "찜질방"
      },
      "geometry": {
        "type": "Point",
        "coordinates": [
          127.04439,
          37.58144
        ]
      }
    },
    {
      "type": "Feature",
      "properties": {
        "name": "성수탕",
        "category": "목욕장업",
        "subtype": "대중목욕탕"
      },
      "geometry": {
        "type": "Point",
        "coordinates": [
          127.105166,
          37.600887
        ]
      }
    },
    {
      "type": "Feature",
      "properties": {
        "name": "면목한신사우나",
        "category": "목욕장업",
        "subtype": "대중목욕탕"
      },
      "geometry": {
        "type": "Point",
        "coordinates": [
          127.075465,
          37.587504
        ]
      }
    },
    {
      "type": "Feature",
      "properties": {
        "name": "용마탕",
        "category": "목욕장업",
        "subtype": "대중목욕탕"
      },
      "geometry": {
        "type": "Point",
        "coordinates": [
          127.098482,
          37.590101
        ]
      }
    },
    {
      "type": "Feature",
      "properties": {
        "name": "세방황금랜드",
        "category": "목욕장업",
        "subtype": "찜질방"
      },
      "geometry": {
        "type": "Point",
        "coordinates": [
          127.085291,
          37.579088
        ]
      }
    },
    {
      "type": "Feature",
      "properties": {
        "name": "호계대중탕",
        "category": "목욕장업",
        "subtype": "대중목욕탕"
      },
      "geometry": {
        "type": "Point",
        "coordinates": [
          127.096835,
          37.601757
        ]
      }
    },
    {
      "type": "Feature",
      "properties": {
        "name": "대원",
        "category": "목욕장업",
        "subtype": "대중목욕탕"
      },
      "geometry": {
        "type": "Point",
        "coordinates": [
          127.086769,
          37.590459
        ]
      }
    },
    {
      "type": "Feature",
      "properties": {
        "name": "백두산자수정사우나",
        "category": "목욕장업",
        "subtype": "찜질방"
      },
      "geometry": {
        "type": "Point",
        "coordinates": [
          127.07766,
          37.60496
        ]
      }
    },
    {
      "type": "Feature",
      "properties": {
        "name": "두산사우나",
        "category": "목욕장업",
        "subtype": "찜질방"
      },
      "geometry": {
        "type": "Point",
        "coordinates": [
          127.082261,
          37.578873
        ]
      }
    },
    {
      "type": "Feature",
      "properties": {
        "name": "봉화사우나",
        "category": "목욕장업",
        "subtype": "대중목욕탕"
      },
      "geometry": {
        "type": "Point",
        "coordinates": [
          127.07692,
          37.598418
        ]
      }
    },
    {
      "type": "Feature",
      "properties": {
        "name": "금강산한증막사우나",
        "category": "목욕장업",
        "subtype": "찜질방"
      },
      "geometry": {
        "type": "Point",
        "coordinates": [
          127.090484,
          37.589885
        ]
      }
    },
    {
      "type": "Feature",
      "properties": {
        "name": "용마스파랜드",
        "category": "목욕장업",
        "subtype": "찜질방"
      },
      "geometry": {
        "type": "Point",
        "coordinates": [
          127.100733,
          37.598934
        ]
      }
    },
    {
      "type": "Feature",
      "properties": {
        "name": "우정대중목욕탕",
        "category": "목욕장업",
        "subtype": "대중목욕탕"
      },
      "geometry": {
        "type": "Point",
        "coordinates": [
          127.077381,
          37.594696
        ]
      }
    },
    {
      "type": "Feature",
      "properties": {
        "name": "천지연스파월드",
        "category": "목욕장업",
        "subtype": "찜질방"
      },
      "geometry": {
        "type": "Point",
        "coordinates": [
          127.10042,
          37.607009
        ]
      }
    },
    {
      "type": "Feature",
      "properties": {
        "name": "우림해수찜사우나",
        "category": "목욕장업",
        "subtype": "찜질방"
      },
      "geometry": {
        "type": "Point",
        "coordinates": [
          127.098827,
          37.596329
        ]
      }
    },
    {
      "type": "Feature",
      "properties": {
        "name": "해오름사우나",
        "category": "목욕장업",
        "subtype": "찜질방"
      },
      "geometry": {
        "type": "Point",
        "coordinates": [
          127.094344,
          37.596616
        ]
      }
    },
    {
      "type": "Feature",
      "properties": {
        "name": "장미탕",
        "category": "목욕장업",
        "subtype": "대중목욕탕"
      },
      "geometry": {
        "type": "Point",
        "coordinates": [
          127.079685,
          37.612552
        ]
      }
    },
    {
      "type": "Feature",
      "properties": {
        "name": "춘천옥사우나",
        "category": "목욕장업",
        "subtype": "찜질방"
      },
      "geometry": {
        "type": "Point",
        "coordinates": [
          127.097141,
          37.606054
        ]
      }
    },
    {
      "type": "Feature",
      "properties": {
        "name": "스파카인드",
        "category": "목욕장업",
        "subtype": "목욕장업"
      },
      "geometry": {
        "type": "Point",
        "coordinates": [
          127.079729,
          37.602012
        ]
      }
    },
    {
      "type": "Feature",
      "properties": {
        "name": "정릉대중탕",
        "category": "목욕장업",
        "subtype": "대중목욕탕"
      },
      "geometry": {
        "type": "Point",
        "coordinates": [
          127.01137,
          37.60427
        ]
      }
    },
    {
      "type": "Feature",
      "properties": {
        "name": "삼선사우나",
        "category": "목욕장업",
        "subtype": "찜질방"
      },
      "geometry": {
        "type": "Point",
        "coordinates": [
          127.010636,
          37.590205
        ]
      }
    },
    {
      "type": "Feature",
      "properties": {
        "name": "한진불가마사우나",
        "category": "목욕장업",
        "subtype": "찜질방"
      },
      "geometry": {
        "type": "Point",
        "coordinates": [
          127.010319,
          37.594808
        ]
      }
    },
    {
      "type": "Feature",
      "properties": {
        "name": "황제사우나",
        "category": "목욕장업",
        "subtype": "목욕장업"
      },
      "geometry": {
        "type": "Point",
        "coordinates": [
          127.014853,
          37.595853
        ]
      }
    },
    {
      "type": "Feature",
      "properties": {
        "name": "태영사우나 한증막",
        "category": "목욕장업",
        "subtype": "찜질방"
      },
      "geometry": {
        "type": "Point",
        "coordinates": [
          127.016111,
          37.606412
        ]
      }
    },
    {
      "type": "Feature",
      "properties": {
        "name": "성신사우나",
        "category": "목욕장업",
        "subtype": "대중목욕탕"
      },
      "geometry": {
        "type": "Point",
        "coordinates": [
          127.007407,
          37.608546
        ]
      }
    },
    {
      "type": "Feature",
      "properties": {
        "name": "청수목욕탕",
        "category": "목욕장업",
        "subtype": "대중목욕탕"
      },
      "geometry": {
        "type": "Point",
        "coordinates": [
          127.001779,
          37.617149
        ]
      }
    },
    {
      "type": "Feature",
      "properties": {
        "name": "정안사우나",
        "category": "목욕장업",
        "subtype": "찜질방"
      },
      "geometry": {
        "type": "Point",
        "coordinates": [
          127.022038,
          37.603304
        ]
      }
    },
    {
      "type": "Feature",
      "properties": {
        "name": "호텔 월드스테이 사우나",
        "category": "목욕장업",
        "subtype": "대중목욕탕"
      },
      "geometry": {
        "type": "Point",
        "coordinates": [
          127.015667,
          37.591491
        ]
      }
    },
    {
      "type": "Feature",
      "properties": {
        "name": "월곡건강랜드",
        "category": "목욕장업",
        "subtype": "찜질방"
      },
      "geometry": {
        "type": "Point",
        "coordinates": [
          127.039937,
          37.603989
        ]
      }
    },
    {
      "type": "Feature",
      "properties": {
        "name": "동호사우나",
        "category": "목욕장업",
        "subtype": "대중목욕탕"
      },
      "geometry": {
        "type": "Point",
        "coordinates": [
          127.060294,
          37.609192
        ]
      }
    },
    {
      "type": "Feature",
      "properties": {
        "name": "안암건강랜드",
        "category": "목욕장업",
        "subtype": "찜질방"
      },
      "geometry": {
        "type": "Point",
        "coordinates": [
          127.030601,
          37.585522
        ]
      }
    },
    {
      "type": "Feature",
      "properties": {
        "name": "한양여성사우나",
        "category": "목욕장업",
        "subtype": "대중목욕탕"
      },
      "geometry": {
        "type": "Point",
        "coordinates": [
          127.050844,
          37.613709
        ]
      }
    },
    {
      "type": "Feature",
      "properties": {
        "name": "노블레스스포츠센터",
        "category": "목욕장업",
        "subtype": "대중목욕탕"
      },
      "geometry": {
        "type": "Point",
        "coordinates": [
          127.035581,
          37.598536
        ]
      }
    },
    {
      "type": "Feature",
      "properties": {
        "name": "뉴 SK사우나",
        "category": "목욕장업",
        "subtype": "대중목욕탕"
      },
      "geometry": {
        "type": "Point",
        "coordinates": [
          127.036989,
          37.601185
        ]
      }
    },
    {
      "type": "Feature",
      "properties": {
        "name": "소나무여성전용불한증막",
        "category": "목욕장업",
        "subtype": "찜질방"
      },
      "geometry": {
        "type": "Point",
        "coordinates": [
          127.016001,
          37.593368
        ]
      }
    },
    {
      "type": "Feature",
      "properties": {
        "name": "송산여성전용사우나",
        "category": "목욕장업",
        "subtype": "대중목욕탕"
      },
      "geometry": {
        "type": "Point",
        "coordinates": [
          127.010468,
          37.59239
        ]
      }
    },
    {
      "type": "Feature",
      "properties": {
        "name": "단오풍정",
        "category": "목욕장업",
        "subtype": "목욕장업"
      },
      "geometry": {
        "type": "Point",
        "coordinates": [
          127.02361,
          37.587173
        ]
      }
    },
    {
      "type": "Feature",
      "properties": {
        "name": "단오풍정",
        "category": "목욕장업",
        "subtype": "목욕장업"
      },
      "geometry": {
        "type": "Point",
        "coordinates": [
          127.018182,
          37.594885
        ]
      }
    },
    {
      "type": "Feature",
      "properties": {
        "name": "삼영탕",
        "category": "목욕장업",
        "subtype": "대중목욕탕"
      },
      "geometry": {
        "type": "Point",
        "coordinates": [
          127.010331,
          37.588917
        ]
      }
    },
    {
      "type": "Feature",
      "properties": {
        "name": "서림탕",
        "category": "목욕장업",
        "subtype": "대중목욕탕"
      },
      "geometry": {
        "type": "Point",
        "coordinates": [
          127.004461,
          37.616329
        ]
      }
    },
    {
      "type": "Feature",
      "properties": {
        "name": "오목탕",
        "category": "목욕장업",
        "subtype": "대중목욕탕"
      },
      "geometry": {
        "type": "Point",
        "coordinates": [
          127.020919,
          37.587005
        ]
      }
    },
    {
      "type": "Feature",
      "properties": {
        "name": "호수탕",
        "category": "목욕장업",
        "subtype": "대중목욕탕"
      },
      "geometry": {
        "type": "Point",
        "coordinates": [
          127.036003,
          37.607951
        ]
      }
    },
    {
      "type": "Feature",
      "properties": {
        "name": "우이령불가마 주쉼사우나",
        "category": "목욕장업",
        "subtype": "찜질방"
      },
      "geometry": {
        "type": "Point",
        "coordinates": [
          127.005844,
          37.6708
        ]
      }
    },
    {
      "type": "Feature",
      "properties": {
        "name": "금수탕",
        "category": "목욕장업",
        "subtype": "대중목욕탕"
      },
      "geometry": {
        "type": "Point",
        "coordinates": [
          127.027599,
          37.61644
        ]
      }
    },
    {
      "type": "Feature",
      "properties": {
        "name": "신흥한증막",
        "category": "목욕장업",
        "subtype": "목욕장업"
      },
      "geometry": {
        "type": "Point",
        "coordinates": [
          127.030328,
          37.618244
        ]
      }
    },
    {
      "type": "Feature",
      "properties": {
        "name": "삼양탕",
        "category": "목욕장업",
        "subtype": "대중목욕탕"
      },
      "geometry": {
        "type": "Point",
        "coordinates": [
          127.015197,
          37.633667
        ]
      }
    },
    {
      "type": "Feature",
      "properties": {
        "name": "해수사우나",
        "category": "목욕장업",
        "subtype": "대중목욕탕"
      },
      "geometry": {
        "type": "Point",
        "coordinates": [
          127.033326,
          37.612414
        ]
      }
    },
    {
      "type": "Feature",
      "properties": {
        "name": "복천탕",
        "category": "목욕장업",
        "subtype": "대중목욕탕"
      },
      "geometry": {
        "type": "Point",
        "coordinates": [
          127.027738,
          37.616753
        ]
      }
    },
    {
      "type": "Feature",
      "properties": {
        "name": "청수탕",
        "category": "목욕장업",
        "subtype": "대중목욕탕"
      },
      "geometry": {
        "type": "Point",
        "coordinates": [
          127.012642,
          37.636605
        ]
      }
    },
    {
      "type": "Feature",
      "properties": {
        "name": "럭키탕",
        "category": "목욕장업",
        "subtype": "대중목욕탕"
      },
      "geometry": {
        "type": "Point",
        "coordinates": [
          127.032079,
          37.624697
        ]
      }
    },
    {
      "type": "Feature",
      "properties": {
        "name": "제일",
        "category": "목욕장업",
        "subtype": "대중목욕탕"
      },
      "geometry": {
        "type": "Point",
        "coordinates": [
          127.029516,
          37.636516
        ]
      }
    },
    {
      "type": "Feature",
      "properties": {
        "name": "두원탕",
        "category": "목욕장업",
        "subtype": "대중목욕탕"
      },
      "geometry": {
        "type": "Point",
        "coordinates": [
          127.027004,
          37.622739
        ]
      }
    },
    {
      "type": "Feature",
      "properties": {
        "name": "우영탕",
        "category": "목욕장업",
        "subtype": "대중목욕탕"
      },
      "geometry": {
        "type": "Point",
        "coordinates": [
          127.018364,
          37.636613
        ]
      }
    },
    {
      "type": "Feature",
      "properties": {
        "name": "한일사우나(해양)",
        "category": "목욕장업",
        "subtype": "대중목욕탕"
      },
      "geometry": {
        "type": "Point",
        "coordinates": [
          127.039526,
          37.628253
        ]
      }
    },
    {
      "type": "Feature",
      "properties": {
        "name": "아쿠아산소사우나",
        "category": "목욕장업",
        "subtype": "찜질방"
      },
      "geometry": {
        "type": "Point",
        "coordinates": [
          127.01855,
          37.645419
        ]
      }
    },
    {
      "type": "Feature",
      "properties": {
        "name": "옥천탕",
        "category": "목욕장업",
        "subtype": "대중목욕탕"
      },
      "geometry": {
        "type": "Point",
        "coordinates": [
          127.028481,
          37.635415
        ]
      }
    },
    {
      "type": "Feature",
      "properties": {
        "name": "수정사우나",
        "category": "목욕장업",
        "subtype": "대중목욕탕"
      },
      "geometry": {
        "type": "Point",
        "coordinates": [
          127.016648,
          37.639856
        ]
      }
    },
    {
      "type": "Feature",
      "properties": {
        "name": "금강산탕",
        "category": "목욕장업",
        "subtype": "찜질방"
      },
      "geometry": {
        "type": "Point",
        "coordinates": [
          127.029313,
          37.61371
        ]
      }
    },
    {
      "type": "Feature",
      "properties": {
        "name": "삼각산사우나",
        "category": "목욕장업",
        "subtype": "찜질방"
      },
      "geometry": {
        "type": "Point",
        "coordinates": [
          127.017629,
          37.6203
        ]
      }
    },
    {
      "type": "Feature",
      "properties": {
        "name": "대림불가마사우나",
        "category": "목욕장업",
        "subtype": "찜질방"
      },
      "geometry": {
        "type": "Point",
        "coordinates": [
          127.022223,
          37.631921
        ]
      }
    },
    {
      "type": "Feature",
      "properties": {
        "name": "삼일사우나",
        "category": "목욕장업",
        "subtype": "찜질방"
      },
      "geometry": {
        "type": "Point",
        "coordinates": [
          127.022104,
          37.617204
        ]
      }
    },
    {
      "type": "Feature",
      "properties": {
        "name": "나온힐링대중사우나",
        "category": "목욕장업",
        "subtype": "찜질방"
      },
      "geometry": {
        "type": "Point",
        "coordinates": [
          127.024255,
          37.637992
        ]
      }
    },
    {
      "type": "Feature",
      "properties": {
        "name": "착한사우나",
        "category": "목욕장업",
        "subtype": "목욕장업"
      },
      "geometry": {
        "type": "Point",
        "coordinates": [
          127.027821,
          37.640472
        ]
      }
    },
    {
      "type": "Feature",
      "properties": {
        "name": "안토 리조트",
        "category": "목욕장업",
        "subtype": "대중목욕탕"
      },
      "geometry": {
        "type": "Point",
        "coordinates": [
          127.008772,
          37.664137
        ]
      }
    },
    {
      "type": "Feature",
      "properties": {
        "name": "베데라파(BEDELAPA)",
        "category": "목욕장업",
        "subtype": "목욕장업"
      },
      "geometry": {
        "type": "Point",
        "coordinates": [
          127.016399,
          37.629933
        ]
      }
    },
    {
      "type": "Feature",
      "properties": {
        "name": "1인세신샵쉼",
        "category": "목욕장업",
        "subtype": "목욕장업"
      },
      "geometry": {
        "type": "Point",
        "coordinates": [
          127.02257,
          37.643896
        ]
      }
    },
    {
      "type": "Feature",
      "properties": {
        "name": "수유사우나",
        "category": "목욕장업",
        "subtype": "찜질방"
      },
      "geometry": {
        "type": "Point",
        "coordinates": [
          127.024489,
          37.631715
        ]
      }
    },
    {
      "type": "Feature",
      "properties": {
        "name": "유림탕",
        "category": "목욕장업",
        "subtype": "대중목욕탕"
      },
      "geometry": {
        "type": "Point",
        "coordinates": [
          127.032233,
          37.648684
        ]
      }
    },
    {
      "type": "Feature",
      "properties": {
        "name": "송림탕",
        "category": "목욕장업",
        "subtype": "대중목욕탕"
      },
      "geometry": {
        "type": "Point",
        "coordinates": [
          127.040275,
          37.636518
        ]
      }
    },
    {
      "type": "Feature",
      "properties": {
        "name": "한성탕",
        "category": "목욕장업",
        "subtype": "대중목욕탕"
      },
      "geometry": {
        "type": "Point",
        "coordinates": [
          127.04341,
          37.679027
        ]
      }
    },
    {
      "type": "Feature",
      "properties": {
        "name": "성원목욕탕",
        "category": "목욕장업",
        "subtype": "대중목욕탕"
      },
      "geometry": {
        "type": "Point",
        "coordinates": [
          127.028076,
          37.658748
        ]
      }
    },
    {
      "type": "Feature",
      "properties": {
        "name": "두승대중목욕탕",
        "category": "목욕장업",
        "subtype": "찜질방"
      },
      "geometry": {
        "type": "Point",
        "coordinates": [
          127.050553,
          37.653243
        ]
      }
    },
    {
      "type": "Feature",
      "properties": {
        "name": "유성목욕탕",
        "category": "목욕장업",
        "subtype": "대중목욕탕"
      },
      "geometry": {
        "type": "Point",
        "coordinates": [
          127.035586,
          37.66559
        ]
      }
    },
    {
      "type": "Feature",
      "properties": {
        "name": "광동탕",
        "category": "목욕장업",
        "subtype": "대중목욕탕"
      },
      "geometry": {
        "type": "Point",
        "coordinates": [
          127.042721,
          37.671606
        ]
      }
    },
    {
      "type": "Feature",
      "properties": {
        "name": "창동 미네랄 사우나",
        "category": "목욕장업",
        "subtype": "대중목욕탕"
      },
      "geometry": {
        "type": "Point",
        "coordinates": [
          127.045752,
          37.651977
        ]
      }
    },
    {
      "type": "Feature",
      "properties": {
        "name": "그린대중목욕탕",
        "category": "목욕장업",
        "subtype": "대중목욕탕"
      },
      "geometry": {
        "type": "Point",
        "coordinates": [
          127.035446,
          37.668993
        ]
      }
    },
    {
      "type": "Feature",
      "properties": {
        "name": "뉴고탑목욕탕",
        "category": "목욕장업",
        "subtype": "대중목욕탕"
      },
      "geometry": {
        "type": "Point",
        "coordinates": [
          127.034329,
          37.640066
        ]
      }
    },
    {
      "type": "Feature",
      "properties": {
        "name": "도봉산싱싱사우나",
        "category": "목욕장업",
        "subtype": "대중목욕탕"
      },
      "geometry": {
        "type": "Point",
        "coordinates": [
          127.041607,
          37.688257
        ]
      }
    },
    {
      "type": "Feature",
      "properties": {
        "name": "성우사우나",
        "category": "목욕장업",
        "subtype": "대중목욕탕"
      },
      "geometry": {
        "type": "Point",
        "coordinates": [
          127.047664,
          37.676263
        ]
      }
    },
    {
      "type": "Feature",
      "properties": {
        "name": "삼익대중목욕탕",
        "category": "목욕장업",
        "subtype": "대중목욕탕"
      },
      "geometry": {
        "type": "Point",
        "coordinates": [
          127.03728,
          37.640081
        ]
      }
    },
    {
      "type": "Feature",
      "properties": {
        "name": "옥담사우나",
        "category": "목욕장업",
        "subtype": "찜질방"
      },
      "geometry": {
        "type": "Point",
        "coordinates": [
          127.050332,
          37.65127
        ]
      }
    },
    {
      "type": "Feature",
      "properties": {
        "name": "동궁해수사우나",
        "category": "목욕장업",
        "subtype": "찜질방"
      },
      "geometry": {
        "type": "Point",
        "coordinates": [
          127.038731,
          37.656392
        ]
      }
    },
    {
      "type": "Feature",
      "properties": {
        "name": "루하스 사우나",
        "category": "목욕장업",
        "subtype": "찜질방"
      },
      "geometry": {
        "type": "Point",
        "coordinates": [
          127.047074,
          37.668027
        ]
      }
    },
    {
      "type": "Feature",
      "properties": {
        "name": "수정목욕탕",
        "category": "목욕장업",
        "subtype": "찜질방"
      },
      "geometry": {
        "type": "Point",
        "coordinates": [
          127.035068,
          37.661261
        ]
      }
    },
    {
      "type": "Feature",
      "properties": {
        "name": "선덕 사우나",
        "category": "목욕장업",
        "subtype": "찜질방"
      },
      "geometry": {
        "type": "Point",
        "coordinates": [
          127.02928,
          37.65584
        ]
      }
    },
    {
      "type": "Feature",
      "properties": {
        "name": "라인셀테라피",
        "category": "목욕장업",
        "subtype": "찜질방"
      },
      "geometry": {
        "type": "Point",
        "coordinates": [
          127.049616,
          37.68252
        ]
      }
    },
    {
      "type": "Feature",
      "properties": {
        "name": "노원사우나",
        "category": "목욕장업",
        "subtype": "찜질방"
      },
      "geometry": {
        "type": "Point",
        "coordinates": [
          127.062157,
          37.654321
        ]
      }
    },
    {
      "type": "Feature",
      "properties": {
        "name": "건영스파밸리",
        "category": "목욕장업",
        "subtype": "찜질방"
      },
      "geometry": {
        "type": "Point",
        "coordinates": [
          127.064754,
          37.638827
        ]
      }
    },
    {
      "type": "Feature",
      "properties": {
        "name": "MVGym",
        "category": "목욕장업",
        "subtype": "찜질방"
      },
      "geometry": {
        "type": "Point",
        "coordinates": [
          127.062624,
          37.646742
        ]
      }
    },
    {
      "type": "Feature",
      "properties": {
        "name": "서울온천",
        "category": "목욕장업",
        "subtype": "찜질방"
      },
      "geometry": {
        "type": "Point",
        "coordinates": [
          127.073373,
          37.639504
        ]
      }
    },
    {
      "type": "Feature",
      "properties": {
        "name": "현정누리",
        "category": "목욕장업",
        "subtype": "목욕장업"
      },
      "geometry": {
        "type": "Point",
        "coordinates": [
          127.064051,
          37.614907
        ]
      }
    },
    {
      "type": "Feature",
      "properties": {
        "name": "노원찜질방",
        "category": "목욕장업",
        "subtype": "찜질방"
      },
      "geometry": {
        "type": "Point",
        "coordinates": [
          127.062157,
          37.654321
        ]
      }
    },
    {
      "type": "Feature",
      "properties": {
        "name": "약수사우나",
        "category": "목욕장업",
        "subtype": "대중목욕탕"
      },
      "geometry": {
        "type": "Point",
        "coordinates": [
          127.083006,
          37.649853
        ]
      }
    },
    {
      "type": "Feature",
      "properties": {
        "name": "노원탕",
        "category": "목욕장업",
        "subtype": "대중목욕탕"
      },
      "geometry": {
        "type": "Point",
        "coordinates": [
          127.067656,
          37.62128
        ]
      }
    },
    {
      "type": "Feature",
      "properties": {
        "name": "궁전보석불가마사우나",
        "category": "목욕장업",
        "subtype": "찜질방"
      },
      "geometry": {
        "type": "Point",
        "coordinates": [
          127.068542,
          37.663673
        ]
      }
    },
    {
      "type": "Feature",
      "properties": {
        "name": "법성대중사우나",
        "category": "목욕장업",
        "subtype": "대중목욕탕"
      },
      "geometry": {
        "type": "Point",
        "coordinates": [
          127.07567,
          37.650493
        ]
      }
    },
    {
      "type": "Feature",
      "properties": {
        "name": "문정사우나",
        "category": "목욕장업",
        "subtype": "대중목욕탕"
      },
      "geometry": {
        "type": "Point",
        "coordinates": [
          127.079541,
          37.62265
        ]
      }
    },
    {
      "type": "Feature",
      "properties": {
        "name": "월드해수사우나",
        "category": "목욕장업",
        "subtype": "찜질방"
      },
      "geometry": {
        "type": "Point",
        "coordinates": [
          127.080014,
          37.668595
        ]
      }
    },
    {
      "type": "Feature",
      "properties": {
        "name": "금강산보석사우나",
        "category": "목욕장업",
        "subtype": "찜질방"
      },
      "geometry": {
        "type": "Point",
        "coordinates": [
          127.055435,
          37.671827
        ]
      }
    },
    {
      "type": "Feature",
      "properties": {
        "name": "삿갓봉목욕탕",
        "category": "목욕장업",
        "subtype": "찜질방"
      },
      "geometry": {
        "type": "Point",
        "coordinates": [
          127.074582,
          37.657379
        ]
      }
    },
    {
      "type": "Feature",
      "properties": {
        "name": "불암산24시황토참숯사우나",
        "category": "목욕장업",
        "subtype": "찜질방"
      },
      "geometry": {
        "type": "Point",
        "coordinates": [
          127.079688,
          37.666957
        ]
      }
    },
    {
      "type": "Feature",
      "properties": {
        "name": "월계24시불한증막사우나",
        "category": "목욕장업",
        "subtype": "찜질방"
      },
      "geometry": {
        "type": "Point",
        "coordinates": [
          127.061014,
          37.630936
        ]
      }
    },
    {
      "type": "Feature",
      "properties": {
        "name": "하이렉스파",
        "category": "목욕장업",
        "subtype": "찜질방"
      },
      "geometry": {
        "type": "Point",
        "coordinates": [
          127.083602,
          37.620811
        ]
      }
    },
    {
      "type": "Feature",
      "properties": {
        "name": "산천사우나",
        "category": "목욕장업",
        "subtype": "대중목욕탕"
      },
      "geometry": {
        "type": "Point",
        "coordinates": [
          127.073491,
          37.656274
        ]
      }
    },
    {
      "type": "Feature",
      "properties": {
        "name": "기자목욕탕",
        "category": "목욕장업",
        "subtype": "찜질방"
      },
      "geometry": {
        "type": "Point",
        "coordinates": [
          127.061626,
          37.658335
        ]
      }
    },
    {
      "type": "Feature",
      "properties": {
        "name": "천일탕",
        "category": "목욕장업",
        "subtype": "대중목욕탕"
      },
      "geometry": {
        "type": "Point",
        "coordinates": [
          126.918776,
          37.602496
        ]
      }
    },
    {
      "type": "Feature",
      "properties": {
        "name": "진양탕",
        "category": "목욕장업",
        "subtype": "대중목욕탕"
      },
      "geometry": {
        "type": "Point",
        "coordinates": [
          126.928831,
          37.624583
        ]
      }
    },
    {
      "type": "Feature",
      "properties": {
        "name": "수양탕",
        "category": "목욕장업",
        "subtype": "대중목욕탕"
      },
      "geometry": {
        "type": "Point",
        "coordinates": [
          126.932933,
          37.618946
        ]
      }
    },
    {
      "type": "Feature",
      "properties": {
        "name": "수정탕",
        "category": "목욕장업",
        "subtype": "대중목욕탕"
      },
      "geometry": {
        "type": "Point",
        "coordinates": [
          126.91919,
          37.622839
        ]
      }
    },
    {
      "type": "Feature",
      "properties": {
        "name": "명진목욕탕",
        "category": "목욕장업",
        "subtype": "대중목욕탕"
      },
      "geometry": {
        "type": "Point",
        "coordinates": [
          126.9259,
          37.610241
        ]
      }
    },
    {
      "type": "Feature",
      "properties": {
        "name": "오복탕",
        "category": "목욕장업",
        "subtype": "대중목욕탕"
      },
      "geometry": {
        "type": "Point",
        "coordinates": [
          126.911304,
          37.614614
        ]
      }
    },
    {
      "type": "Feature",
      "properties": {
        "name": "대진대중탕",
        "category": "목욕장업",
        "subtype": "대중목욕탕"
      },
      "geometry": {
        "type": "Point",
        "coordinates": [
          126.922839,
          37.601501
        ]
      }
    },
    {
      "type": "Feature",
      "properties": {
        "name": "해피황토사우나",
        "category": "목욕장업",
        "subtype": "대중목욕탕"
      },
      "geometry": {
        "type": "Point",
        "coordinates": [
          126.908539,
          37.600411
        ]
      }
    },
    {
      "type": "Feature",
      "properties": {
        "name": "신은평대중목욕탕",
        "category": "목욕장업",
        "subtype": "대중목욕탕"
      },
      "geometry": {
        "type": "Point",
        "coordinates": [
          126.920657,
          37.593226
        ]
      }
    },
    {
      "type": "Feature",
      "properties": {
        "name": "동양사우나",
        "category": "목욕장업",
        "subtype": "찜질방"
      },
      "geometry": {
        "type": "Point",
        "coordinates": [
          126.920011,
          37.586361
        ]
      }
    },
    {
      "type": "Feature",
      "properties": {
        "name": "은하수사우나",
        "category": "목욕장업",
        "subtype": "대중목욕탕"
      },
      "geometry": {
        "type": "Point",
        "coordinates": [
          126.910826,
          37.606742
        ]
      }
    },
    {
      "type": "Feature",
      "properties": {
        "name": "대호사우나",
        "category": "목욕장업",
        "subtype": "찜질방"
      },
      "geometry": {
        "type": "Point",
        "coordinates": [
          126.932861,
          37.614754
        ]
      }
    },
    {
      "type": "Feature",
      "properties": {
        "name": "삼부건강랜드보석사우나",
        "category": "목욕장업",
        "subtype": "찜질방"
      },
      "geometry": {
        "type": "Point",
        "coordinates": [
          126.913449,
          37.595685
        ]
      }
    },
    {
      "type": "Feature",
      "properties": {
        "name": "천수경사우나",
        "category": "목욕장업",
        "subtype": "대중목욕탕"
      },
      "geometry": {
        "type": "Point",
        "coordinates": [
          126.91432,
          37.614261
        ]
      }
    },
    {
      "type": "Feature",
      "properties": {
        "name": "메트로보석사우나",
        "category": "목욕장업",
        "subtype": "찜질방"
      },
      "geometry": {
        "type": "Point",
        "coordinates": [
          126.921478,
          37.619635
        ]
      }
    },
    {
      "type": "Feature",
      "properties": {
        "name": "은경불한증막사우나",
        "category": "목욕장업",
        "subtype": "찜질방"
      },
      "geometry": {
        "type": "Point",
        "coordinates": [
          126.923091,
          37.600228
        ]
      }
    },
    {
      "type": "Feature",
      "properties": {
        "name": "메트로불한증막사우나",
        "category": "목욕장업",
        "subtype": "찜질방"
      },
      "geometry": {
        "type": "Point",
        "coordinates": [
          126.920103,
          37.599819
        ]
      }
    },
    {
      "type": "Feature",
      "properties": {
        "name": "더죤스파24시사우나",
        "category": "목욕장업",
        "subtype": "찜질방"
      },
      "geometry": {
        "type": "Point",
        "coordinates": [
          126.916472,
          37.597903
        ]
      }
    },
    {
      "type": "Feature",
      "properties": {
        "name": "용광사우나",
        "category": "목욕장업",
        "subtype": "대중목욕탕"
      },
      "geometry": {
        "type": "Point",
        "coordinates": [
          126.928233,
          37.623703
        ]
      }
    },
    {
      "type": "Feature",
      "properties": {
        "name": "술리스",
        "category": "목욕장업",
        "subtype": "목욕장업"
      },
      "geometry": {
        "type": "Point",
        "coordinates": [
          126.934531,
          37.60403
        ]
      }
    },
    {
      "type": "Feature",
      "properties": {
        "name": "슬릭",
        "category": "목욕장업",
        "subtype": "목욕장업"
      },
      "geometry": {
        "type": "Point",
        "coordinates": [
          126.922932,
          37.600813
        ]
      }
    },
    {
      "type": "Feature",
      "properties": {
        "name": "드림힐링앤사우나",
        "category": "목욕장업",
        "subtype": "목욕장업"
      },
      "geometry": {
        "type": "Point",
        "coordinates": [
          126.919354,
          37.635733
        ]
      }
    },
    {
      "type": "Feature",
      "properties": {
        "name": "삼정스포츠 수영장",
        "category": "목욕장업",
        "subtype": "목욕장업"
      },
      "geometry": {
        "type": "Point",
        "coordinates": [
          126.92173,
          37.60903
        ]
      }
    },
    {
      "type": "Feature",
      "properties": {
        "name": "D.N.M.힐링라이프 찜질카페",
        "category": "목욕장업",
        "subtype": "찜질방"
      },
      "geometry": {
        "type": "Point",
        "coordinates": [
          126.912846,
          37.610704
        ]
      }
    },
    {
      "type": "Feature",
      "properties": {
        "name": "녹번 점핑 다이어트",
        "category": "목욕장업",
        "subtype": "찜질방"
      },
      "geometry": {
        "type": "Point",
        "coordinates": [
          126.929725,
          37.601773
        ]
      }
    },
    {
      "type": "Feature",
      "properties": {
        "name": "태양열",
        "category": "목욕장업",
        "subtype": "대중목욕탕"
      },
      "geometry": {
        "type": "Point",
        "coordinates": [
          126.948601,
          37.594144
        ]
      }
    },
    {
      "type": "Feature",
      "properties": {
        "name": "서울사우나",
        "category": "목욕장업",
        "subtype": "목욕장업"
      },
      "geometry": {
        "type": "Point",
        "coordinates": [
          126.935254,
          37.589181
        ]
      }
    },
    {
      "type": "Feature",
      "properties": {
        "name": "광산탕",
        "category": "목욕장업",
        "subtype": "찜질방"
      },
      "geometry": {
        "type": "Point",
        "coordinates": [
          126.964795,
          37.565947
        ]
      }
    },
    {
      "type": "Feature",
      "properties": {
        "name": "혜우사우나",
        "category": "목욕장업",
        "subtype": "대중목욕탕"
      },
      "geometry": {
        "type": "Point",
        "coordinates": [
          126.94317,
          37.557639
        ]
      }
    },
    {
      "type": "Feature",
      "properties": {
        "name": "오성24시사우나",
        "category": "목욕장업",
        "subtype": "찜질방"
      },
      "geometry": {
        "type": "Point",
        "coordinates": [
          126.917215,
          37.569489
        ]
      }
    },
    {
      "type": "Feature",
      "properties": {
        "name": "홍은탕",
        "category": "목욕장업",
        "subtype": "대중목욕탕"
      },
      "geometry": {
        "type": "Point",
        "coordinates": [
          126.949413,
          37.599126
        ]
      }
    },
    {
      "type": "Feature",
      "properties": {
        "name": "벽산목욕탕",
        "category": "목욕장업",
        "subtype": "대중목욕탕"
      },
      "geometry": {
        "type": "Point",
        "coordinates": [
          126.944817,
          37.595376
        ]
      }
    },
    {
      "type": "Feature",
      "properties": {
        "name": "스카이빌옥사우나",
        "category": "목욕장업",
        "subtype": "대중목욕탕"
      },
      "geometry": {
        "type": "Point",
        "coordinates": [
          126.916472,
          37.579546
        ]
      }
    },
    {
      "type": "Feature",
      "properties": {
        "name": "연세스포츠사우나",
        "category": "목욕장업",
        "subtype": "찜질방"
      },
      "geometry": {
        "type": "Point",
        "coordinates": [
          126.946405,
          37.586175
        ]
      }
    },
    {
      "type": "Feature",
      "properties": {
        "name": "태창대중옥사우나",
        "category": "목욕장업",
        "subtype": "대중목욕탕"
      },
      "geometry": {
        "type": "Point",
        "coordinates": [
          126.938625,
          37.583318
        ]
      }
    },
    {
      "type": "Feature",
      "properties": {
        "name": "에프엠씨 스포츠클럽목욕탕",
        "category": "목욕장업",
        "subtype": "대중목욕탕"
      },
      "geometry": {
        "type": "Point",
        "coordinates": [
          126.949588,
          37.587659
        ]
      }
    },
    {
      "type": "Feature",
      "properties": {
        "name": "아현스파렌드",
        "category": "목욕장업",
        "subtype": "대중목욕탕"
      },
      "geometry": {
        "type": "Point",
        "coordinates": [
          126.957291,
          37.559837
        ]
      }
    },
    {
      "type": "Feature",
      "properties": {
        "name": "고려사우나",
        "category": "목욕장업",
        "subtype": "찜질방"
      },
      "geometry": {
        "type": "Point",
        "coordinates": [
          126.93064,
          37.576785
        ]
      }
    },
    {
      "type": "Feature",
      "properties": {
        "name": "참솔게르마늄사우나",
        "category": "목욕장업",
        "subtype": "찜질방"
      },
      "geometry": {
        "type": "Point",
        "coordinates": [
          126.956767,
          37.572035
        ]
      }
    },
    {
      "type": "Feature",
      "properties": {
        "name": "숲속한방랜드숯가마24시",
        "category": "목욕장업",
        "subtype": "찜질방"
      },
      "geometry": {
        "type": "Point",
        "coordinates": [
          126.945701,
          37.570251
        ]
      }
    },
    {
      "type": "Feature",
      "properties": {
        "name": "미소사우나",
        "category": "목욕장업",
        "subtype": "대중목욕탕"
      },
      "geometry": {
        "type": "Point",
        "coordinates": [
          126.966216,
          37.561301
        ]
      }
    },
    {
      "type": "Feature",
      "properties": {
        "name": "유진사우나",
        "category": "목욕장업",
        "subtype": "목욕장업"
      },
      "geometry": {
        "type": "Point",
        "coordinates": [
          126.944803,
          37.591498
        ]
      }
    },
    {
      "type": "Feature",
      "properties": {
        "name": "홍대24시불가마사우나",
        "category": "목욕장업",
        "subtype": "찜질방"
      },
      "geometry": {
        "type": "Point",
        "coordinates": [
          126.927522,
          37.558937
        ]
      }
    },
    {
      "type": "Feature",
      "properties": {
        "name": "스타칼리",
        "category": "목욕장업",
        "subtype": "찜질방"
      },
      "geometry": {
        "type": "Point",
        "coordinates": [
          126.942723,
          37.590398
        ]
      }
    },
    {
      "type": "Feature",
      "properties": {
        "name": "래미안휘트니스센터(주)",
        "category": "목욕장업",
        "subtype": "대중목욕탕"
      },
      "geometry": {
        "type": "Point",
        "coordinates": [
          126.912658,
          37.571989
        ]
      }
    },
    {
      "type": "Feature",
      "properties": {
        "name": "서울특별시마포구시설관리공단",
        "category": "목욕장업",
        "subtype": "대중목욕탕"
      },
      "geometry": {
        "type": "Point",
        "coordinates": [
          126.895399,
          37.57673
        ]
      }
    },
    {
      "type": "Feature",
      "properties": {
        "name": "스탠포트호텔서울",
        "category": "목욕장업",
        "subtype": "대중목욕탕"
      },
      "geometry": {
        "type": "Point",
        "coordinates": [
          126.886664,
          37.582325
        ]
      }
    },
    {
      "type": "Feature",
      "properties": {
        "name": "토정24시사우나찜질방",
        "category": "목욕장업",
        "subtype": "찜질방"
      },
      "geometry": {
        "type": "Point",
        "coordinates": [
          126.941298,
          37.541061
        ]
      }
    },
    {
      "type": "Feature",
      "properties": {
        "name": "시티짐 마포점",
        "category": "목욕장업",
        "subtype": "대중목욕탕"
      },
      "geometry": {
        "type": "Point",
        "coordinates": [
          126.947097,
          37.538532
        ]
      }
    },
    {
      "type": "Feature",
      "properties": {
        "name": "버핏 클럽하우스 마포",
        "category": "목욕장업",
        "subtype": "찜질방"
      },
      "geometry": {
        "type": "Point",
        "coordinates": [
          126.94077,
          37.541611
        ]
      }
    },
    {
      "type": "Feature",
      "properties": {
        "name": "24시남성사우나",
        "category": "목욕장업",
        "subtype": "대중목욕탕"
      },
      "geometry": {
        "type": "Point",
        "coordinates": [
          126.92066,
          37.553296
        ]
      }
    },
    {
      "type": "Feature",
      "properties": {
        "name": "세이안",
        "category": "목욕장업",
        "subtype": "목욕장업"
      },
      "geometry": {
        "type": "Point",
        "coordinates": [
          126.922243,
          37.56318
        ]
      }
    },
    {
      "type": "Feature",
      "properties": {
        "name": "세신샵 담다",
        "category": "목욕장업",
        "subtype": "목욕장업"
      },
      "geometry": {
        "type": "Point",
        "coordinates": [
          126.914016,
          37.553737
        ]
      }
    },
    {
      "type": "Feature",
      "properties": {
        "name": "주식회사 연남스크럽",
        "category": "목욕장업",
        "subtype": "목욕장업"
      },
      "geometry": {
        "type": "Point",
        "coordinates": [
          126.926208,
          37.563252
        ]
      }
    },
    {
      "type": "Feature",
      "properties": {
        "name": "세이안 동교",
        "category": "목욕장업",
        "subtype": "목욕장업"
      },
      "geometry": {
        "type": "Point",
        "coordinates": [
          126.922689,
          37.557919
        ]
      }
    },
    {
      "type": "Feature",
      "properties": {
        "name": "건강관리센터",
        "category": "목욕장업",
        "subtype": "찜질방"
      },
      "geometry": {
        "type": "Point",
        "coordinates": [
          126.921694,
          37.544327
        ]
      }
    },
    {
      "type": "Feature",
      "properties": {
        "name": "더 설하(THE SEOL:HA)",
        "category": "목욕장업",
        "subtype": "목욕장업"
      },
      "geometry": {
        "type": "Point",
        "coordinates": [
          126.918248,
          37.556395
        ]
      }
    },
    {
      "type": "Feature",
      "properties": {
        "name": "성미탕",
        "category": "목욕장업",
        "subtype": "대중목욕탕"
      },
      "geometry": {
        "type": "Point",
        "coordinates": [
          126.908634,
          37.558289
        ]
      }
    },
    {
      "type": "Feature",
      "properties": {
        "name": "성산탕",
        "category": "목욕장업",
        "subtype": "대중목욕탕"
      },
      "geometry": {
        "type": "Point",
        "coordinates": [
          126.902359,
          37.568957
        ]
      }
    },
    {
      "type": "Feature",
      "properties": {
        "name": "서림탕",
        "category": "목욕장업",
        "subtype": "대중목욕탕"
      },
      "geometry": {
        "type": "Point",
        "coordinates": [
          126.920858,
          37.56016
        ]
      }
    },
    {
      "type": "Feature",
      "properties": {
        "name": "천호목욕탕",
        "category": "목욕장업",
        "subtype": "대중목욕탕"
      },
      "geometry": {
        "type": "Point",
        "coordinates": [
          126.905154,
          37.558561
        ]
      }
    },
    {
      "type": "Feature",
      "properties": {
        "name": "제일목욕탕",
        "category": "목욕장업",
        "subtype": "찜질방"
      },
      "geometry": {
        "type": "Point",
        "coordinates": [
          126.951647,
          37.556743
        ]
      }
    },
    {
      "type": "Feature",
      "properties": {
        "name": "청원대중목욕탕",
        "category": "목욕장업",
        "subtype": "대중목욕탕"
      },
      "geometry": {
        "type": "Point",
        "coordinates": [
          126.913224,
          37.564114
        ]
      }
    },
    {
      "type": "Feature",
      "properties": {
        "name": "토정24시사우나찜질방",
        "category": "목욕장업",
        "subtype": "대중목욕탕"
      },
      "geometry": {
        "type": "Point",
        "coordinates": [
          126.941298,
          37.541061
        ]
      }
    },
    {
      "type": "Feature",
      "properties": {
        "name": "유성대중사우나",
        "category": "목욕장업",
        "subtype": "대중목욕탕"
      },
      "geometry": {
        "type": "Point",
        "coordinates": [
          126.911891,
          37.558633
        ]
      }
    },
    {
      "type": "Feature",
      "properties": {
        "name": "삼성대중목욕탕",
        "category": "목욕장업",
        "subtype": "대중목욕탕"
      },
      "geometry": {
        "type": "Point",
        "coordinates": [
          126.950348,
          37.540113
        ]
      }
    },
    {
      "type": "Feature",
      "properties": {
        "name": "삼일대중목욕탕",
        "category": "목욕장업",
        "subtype": "대중목욕탕"
      },
      "geometry": {
        "type": "Point",
        "coordinates": [
          126.911235,
          37.554386
        ]
      }
    },
    {
      "type": "Feature",
      "properties": {
        "name": "24시 사우나 네이버한방스파",
        "category": "목욕장업",
        "subtype": "찜질방"
      },
      "geometry": {
        "type": "Point",
        "coordinates": [
          126.944643,
          37.542314
        ]
      }
    },
    {
      "type": "Feature",
      "properties": {
        "name": "스포짐휘트니스 사우나",
        "category": "목욕장업",
        "subtype": "찜질방"
      },
      "geometry": {
        "type": "Point",
        "coordinates": [
          126.916789,
          37.55737
        ]
      }
    },
    {
      "type": "Feature",
      "properties": {
        "name": "풍림24시불가마사우나",
        "category": "목욕장업",
        "subtype": "찜질방"
      },
      "geometry": {
        "type": "Point",
        "coordinates": [
          126.952169,
          37.546228
        ]
      }
    },
    {
      "type": "Feature",
      "properties": {
        "name": "친정 숲한증막",
        "category": "목욕장업",
        "subtype": "찜질방"
      },
      "geometry": {
        "type": "Point",
        "coordinates": [
          126.930901,
          37.551172
        ]
      }
    },
    {
      "type": "Feature",
      "properties": {
        "name": "빅브로짐 목동점",
        "category": "목욕장업",
        "subtype": "대중목욕탕"
      },
      "geometry": {
        "type": "Point",
        "coordinates": [
          126.864447,
          37.527384
        ]
      }
    },
    {
      "type": "Feature",
      "properties": {
        "name": "웰빙24시여성전용한증막",
        "category": "목욕장업",
        "subtype": "찜질방"
      },
      "geometry": {
        "type": "Point",
        "coordinates": [
          126.840415,
          37.521355
        ]
      }
    },
    {
      "type": "Feature",
      "properties": {
        "name": "파라곤스파",
        "category": "목욕장업",
        "subtype": "찜질방"
      },
      "geometry": {
        "type": "Point",
        "coordinates": [
          126.875163,
          37.529504
        ]
      }
    },
    {
      "type": "Feature",
      "properties": {
        "name": "경창사우나",
        "category": "목욕장업",
        "subtype": "대중목욕탕"
      },
      "geometry": {
        "type": "Point",
        "coordinates": [
          126.842644,
          37.524594
        ]
      }
    },
    {
      "type": "Feature",
      "properties": {
        "name": "토성사우나",
        "category": "목욕장업",
        "subtype": "찜질방"
      },
      "geometry": {
        "type": "Point",
        "coordinates": [
          126.85554,
          37.513238
        ]
      }
    },
    {
      "type": "Feature",
      "properties": {
        "name": "등촌사우나",
        "category": "목욕장업",
        "subtype": "대중목욕탕"
      },
      "geometry": {
        "type": "Point",
        "coordinates": [
          126.864045,
          37.549334
        ]
      }
    },
    {
      "type": "Feature",
      "properties": {
        "name": "해동참숯가마사우나",
        "category": "목욕장업",
        "subtype": "찜질방"
      },
      "geometry": {
        "type": "Point",
        "coordinates": [
          126.876599,
          37.522835
        ]
      }
    },
    {
      "type": "Feature",
      "properties": {
        "name": "신성대중사우나",
        "category": "목욕장업",
        "subtype": "대중목욕탕"
      },
      "geometry": {
        "type": "Point",
        "coordinates": [
          126.865918,
          37.509211
        ]
      }
    },
    {
      "type": "Feature",
      "properties": {
        "name": "(주)스포짐네트웍스",
        "category": "목욕장업",
        "subtype": "찜질방"
      },
      "geometry": {
        "type": "Point",
        "coordinates": [
          126.870383,
          37.525993
        ]
      }
    },
    {
      "type": "Feature",
      "properties": {
        "name": "휘트니스 엠 오목교점",
        "category": "목욕장업",
        "subtype": "찜질방"
      },
      "geometry": {
        "type": "Point",
        "coordinates": [
          126.874988,
          37.522368
        ]
      }
    },
    {
      "type": "Feature",
      "properties": {
        "name": "목동탕",
        "category": "목욕장업",
        "subtype": "대중목욕탕"
      },
      "geometry": {
        "type": "Point",
        "coordinates": [
          126.866267,
          37.539644
        ]
      }
    },
    {
      "type": "Feature",
      "properties": {
        "name": "신월",
        "category": "목욕장업",
        "subtype": "대중목욕탕"
      },
      "geometry": {
        "type": "Point",
        "coordinates": [
          126.839306,
          37.523079
        ]
      }
    },
    {
      "type": "Feature",
      "properties": {
        "name": "현대탕",
        "category": "목욕장업",
        "subtype": "대중목욕탕"
      },
      "geometry": {
        "type": "Point",
        "coordinates": [
          126.826207,
          37.534007
        ]
      }
    },
    {
      "type": "Feature",
      "properties": {
        "name": "영진탕",
        "category": "목욕장업",
        "subtype": "대중목욕탕"
      },
      "geometry": {
        "type": "Point",
        "coordinates": [
          126.873097,
          37.546051
        ]
      }
    },
    {
      "type": "Feature",
      "properties": {
        "name": "예주목욕탕",
        "category": "목욕장업",
        "subtype": "대중목욕탕"
      },
      "geometry": {
        "type": "Point",
        "coordinates": [
          126.865267,
          37.541503
        ]
      }
    },
    {
      "type": "Feature",
      "properties": {
        "name": "금강대중목욕탕",
        "category": "목욕장업",
        "subtype": "대중목욕탕"
      },
      "geometry": {
        "type": "Point",
        "coordinates": [
          126.837412,
          37.515963
        ]
      }
    },
    {
      "type": "Feature",
      "properties": {
        "name": "동화사우나",
        "category": "목욕장업",
        "subtype": "찜질방"
      },
      "geometry": {
        "type": "Point",
        "coordinates": [
          126.828882,
          37.539091
        ]
      }
    },
    {
      "type": "Feature",
      "properties": {
        "name": "태형",
        "category": "목욕장업",
        "subtype": "대중목욕탕"
      },
      "geometry": {
        "type": "Point",
        "coordinates": [
          126.832521,
          37.532768
        ]
      }
    },
    {
      "type": "Feature",
      "properties": {
        "name": "태양",
        "category": "목욕장업",
        "subtype": "대중목욕탕"
      },
      "geometry": {
        "type": "Point",
        "coordinates": [
          126.836394,
          37.5301
        ]
      }
    },
    {
      "type": "Feature",
      "properties": {
        "name": "현대월드대중사우나",
        "category": "목욕장업",
        "subtype": "대중목욕탕"
      },
      "geometry": {
        "type": "Point",
        "coordinates": [
          126.878042,
          37.535986
        ]
      }
    },
    {
      "type": "Feature",
      "properties": {
        "name": "신정 금성랜드 사우나",
        "category": "목욕장업",
        "subtype": "찜질방"
      },
      "geometry": {
        "type": "Point",
        "coordinates": [
          126.855231,
          37.524656
        ]
      }
    },
    {
      "type": "Feature",
      "properties": {
        "name": "로즈그린서윤사우나",
        "category": "목욕장업",
        "subtype": "대중목욕탕"
      },
      "geometry": {
        "type": "Point",
        "coordinates": [
          126.843353,
          37.519529
        ]
      }
    },
    {
      "type": "Feature",
      "properties": {
        "name": "동방숯가마사우나",
        "category": "목욕장업",
        "subtype": "찜질방"
      },
      "geometry": {
        "type": "Point",
        "coordinates": [
          126.846468,
          37.521451
        ]
      }
    },
    {
      "type": "Feature",
      "properties": {
        "name": "로데오사우나",
        "category": "목욕장업",
        "subtype": "찜질방"
      },
      "geometry": {
        "type": "Point",
        "coordinates": [
          126.85973,
          37.527952
        ]
      }
    },
    {
      "type": "Feature",
      "properties": {
        "name": "스파존대중사우나",
        "category": "목욕장업",
        "subtype": "찜질방"
      },
      "geometry": {
        "type": "Point",
        "coordinates": [
          126.846165,
          37.529984
        ]
      }
    },
    {
      "type": "Feature",
      "properties": {
        "name": "대룡VIP사우나한증막",
        "category": "목욕장업",
        "subtype": "찜질방"
      },
      "geometry": {
        "type": "Point",
        "coordinates": [
          126.84142,
          37.566624
        ]
      }
    },
    {
      "type": "Feature",
      "properties": {
        "name": "개화산랜드",
        "category": "목욕장업",
        "subtype": "찜질방"
      },