{
  "type": "FeatureCollection",
  "note": "전국 고위험 병원(상급종합/종합/요양) · 심평원 병원정보서비스 · WGS84",
  "features": [
    {
      "type": "Feature",
      "properties": {
        "name": "가톨릭대학교 성빈센트병원",
        "clCdNm": "상급종합",
        "sido": "경기"
      },
      "geometry": {
        "type": "Point",
        "coordinates": [
          127.027427,
          37.277985
        ]
      }
    },
    {
      "type": "Feature",
      "properties": {
        "name": "가톨릭대학교인천성모병원",
        "clCdNm": "상급종합",
        "sido": "인천"
      },
      "geometry": {
        "type": "Point",
        "coordinates": [
          126.724899,
          37.484831
        ]
      }
    },
    {
      "type": "Feature",
      "properties": {
        "name": "강릉아산병원",
        "clCdNm": "상급종합",
        "sido": "강원"
      },
      "geometry": {
        "type": "Point",
        "coordinates": [
          128.857841,
          37.818432
        ]
      }
    },
    {
      "type": "Feature",
      "properties": {
        "name": "강북삼성병원",
        "clCdNm": "상급종합",
        "sido": "서울"
      },
      "geometry": {
        "type": "Point",
        "coordinates": [
          126.96775,
          37.568408
        ]
      }
    },
    {
      "type": "Feature",
      "properties": {
        "name": "건국대학교병원",
        "clCdNm": "상급종합",
        "sido": "서울"
      },
      "geometry": {
        "type": "Point",
        "coordinates": [
          127.071828,
          37.540376
        ]
      }
    },
    {
      "type": "Feature",
      "properties": {
        "name": "경북대학교병원",
        "clCdNm": "상급종합",
        "sido": "대구"
      },
      "geometry": {
        "type": "Point",
        "coordinates": [
          128.604703,
          35.866253
        ]
      }
    },
    {
      "type": "Feature",
      "properties": {
        "name": "경상국립대학교병원",
        "clCdNm": "상급종합",
        "sido": "경남"
      },
      "geometry": {
        "type": "Point",
        "coordinates": [
          128.096492,
          35.175994
        ]
      }
    },
    {
      "type": "Feature",
      "properties": {
        "name": "경희대학교병원",
        "clCdNm": "상급종합",
        "sido": "서울"
      },
      "geometry": {
        "type": "Point",
        "coordinates": [
          127.051852,
          37.594119
        ]
      }
    },
    {
      "type": "Feature",
      "properties": {
        "name": "계명대학교동산병원",
        "clCdNm": "상급종합",
        "sido": "대구"
      },
      "geometry": {
        "type": "Point",
        "coordinates": [
          128.480131,
          35.853886
        ]
      }
    },
    {
      "type": "Feature",
      "properties": {
        "name": "고려대학교의과대학부속구로병원",
        "clCdNm": "상급종합",
        "sido": "서울"
      },
      "geometry": {
        "type": "Point",
        "coordinates": [
          126.88487,
          37.492052
        ]
      }
    },
    {
      "type": "Feature",
      "properties": {
        "name": "고려대학교의과대학부속안산병원",
        "clCdNm": "상급종합",
        "sido": "경기"
      },
      "geometry": {
        "type": "Point",
        "coordinates": [
          126.824903,
          37.318514
        ]
      }
    },
    {
      "type": "Feature",
      "properties": {
        "name": "고신대학교복음병원",
        "clCdNm": "상급종합",
        "sido": "부산"
      },
      "geometry": {
        "type": "Point",
        "coordinates": [
          129.013959,
          35.080964
        ]
      }
    },
    {
      "type": "Feature",
      "properties": {
        "name": "단국대학교의과대학부속병원",
        "clCdNm": "상급종합",
        "sido": "충남"
      },
      "geometry": {
        "type": "Point",
        "coordinates": [
          127.172575,
          36.84159
        ]
      }
    },
    {
      "type": "Feature",
      "properties": {
        "name": "대구가톨릭대학교병원",
        "clCdNm": "상급종합",
        "sido": "대구"
      },
      "geometry": {
        "type": "Point",
        "coordinates": [
          128.567997,
          35.843608
        ]
      }
    },
    {
      "type": "Feature",
      "properties": {
        "name": "동아대학교병원",
        "clCdNm": "상급종합",
        "sido": "부산"
      },
      "geometry": {
        "type": "Point",
        "coordinates": [
          129.017539,
          35.120168
        ]
      }
    },
    {
      "type": "Feature",
      "properties": {
        "name": "부산대학교병원",
        "clCdNm": "상급종합",
        "sido": "부산"
      },
      "geometry": {
        "type": "Point",
        "coordinates": [
          129.018803,
          35.100848
        ]
      }
    },
    {
      "type": "Feature",
      "properties": {
        "name": "분당서울대학교병원",
        "clCdNm": "상급종합",
        "sido": "경기"
      },
      "geometry": {
        "type": "Point",
        "coordinates": [
          127.123407,
          37.351669
        ]
      }
    },
    {
      "type": "Feature",
      "properties": {
        "name": "삼성서울병원",
        "clCdNm": "상급종합",
        "sido": "서울"
      },
      "geometry": {
        "type": "Point",
        "coordinates": [
          127.085151,
          37.488298
        ]
      }
    },
    {
      "type": "Feature",
      "properties": {
        "name": "서울대학교병원",
        "clCdNm": "상급종합",
        "sido": "서울"
      },
      "geometry": {
        "type": "Point",
        "coordinates": [
          126.999017,
          37.579715
        ]
      }
    },
    {
      "type": "Feature",
      "properties": {
        "name": "순천향대학교부속부천병원",
        "clCdNm": "상급종합",
        "sido": "경기"
      },
      "geometry": {
        "type": "Point",
        "coordinates": [
          126.762963,
          37.4987
        ]
      }
    },
    {
      "type": "Feature",
      "properties": {
        "name": "아주대학교병원",
        "clCdNm": "상급종합",
        "sido": "경기"
      },
      "geometry": {
        "type": "Point",
        "coordinates": [
          127.047684,
          37.279461
        ]
      }
    },
    {
      "type": "Feature",
      "properties": {
        "name": "양산부산대학교병원",
        "clCdNm": "상급종합",
        "sido": "경남"
      },
      "geometry": {
        "type": "Point",
        "coordinates": [
          129.005727,
          35.32815
        ]
      }
    },
    {
      "type": "Feature",
      "properties": {
        "name": "연세대학교 원주세브란스기독병원",
        "clCdNm": "상급종합",
        "sido": "강원"
      },
      "geometry": {
        "type": "Point",
        "coordinates": [
          127.945664,
          37.349001
        ]
      }
    },
    {
      "type": "Feature",
      "properties": {
        "name": "연세대학교의과대학 강남세브란스병원",
        "clCdNm": "상급종합",
        "sido": "서울"
      },
      "geometry": {
        "type": "Point",
        "coordinates": [
          127.046268,
          37.49293
        ]
      }
    },
    {
      "type": "Feature",
      "properties": {
        "name": "연세대학교의과대학세브란스병원",
        "clCdNm": "상급종합",
        "sido": "서울"
      },
      "geometry": {
        "type": "Point",
        "coordinates": [
          126.940827,
          37.562345
        ]
      }
    },
    {
      "type": "Feature",
      "properties": {
        "name": "영남대학교병원",
        "clCdNm": "상급종합",
        "sido": "대구"
      },
      "geometry": {
        "type": "Point",
        "coordinates": [
          128.58205,
          35.848107
        ]
      }
    },
    {
      "type": "Feature",
      "properties": {
        "name": "원광대학교병원",
        "clCdNm": "상급종합",
        "sido": "전북"
      },
      "geometry": {
        "type": "Point",
        "coordinates": [
          126.959579,
          35.964639
        ]
      }
    },
    {
      "type": "Feature",
      "properties": {
        "name": "의료법인 길의료재단 길병원",
        "clCdNm": "상급종합",
        "sido": "인천"
      },
      "geometry": {
        "type": "Point",
        "coordinates": [
          126.709226,
          37.452171
        ]
      }
    },
    {
      "type": "Feature",
      "properties": {
        "name": "이화여자대학교의과대학부속목동병원",
        "clCdNm": "상급종합",
        "sido": "서울"
      },
      "geometry": {
        "type": "Point",
        "coordinates": [
          126.886204,
          37.536602
        ]
      }
    },
    {
      "type": "Feature",
      "properties": {
        "name": "인제대학교부산백병원",
        "clCdNm": "상급종합",
        "sido": "부산"
      },
      "geometry": {
        "type": "Point",
        "coordinates": [
          129.020893,
          35.146181
        ]
      }
    },
    {
      "type": "Feature",
      "properties": {
        "name": "인하대학교의과대학부속병원",
        "clCdNm": "상급종합",
        "sido": "인천"
      },
      "geometry": {
        "type": "Point",
        "coordinates": [
          126.634095,
          37.458679
        ]
      }
    },
    {
      "type": "Feature",
      "properties": {
        "name": "재단법인아산사회복지재단 서울아산병원",
        "clCdNm": "상급종합",
        "sido": "서울"
      },
      "geometry": {
        "type": "Point",
        "coordinates": [
          127.107935,
          37.526576
        ]
      }
    },
    {
      "type": "Feature",
      "properties": {
        "name": "전남대학교병원",
        "clCdNm": "상급종합",
        "sido": "전남광주"
      },
      "geometry": {
        "type": "Point",
        "coordinates": [
          126.921581,
          35.141809
        ]
      }
    },
    {
      "type": "Feature",
      "properties": {
        "name": "전북대학교병원",
        "clCdNm": "상급종합",
        "sido": "전북"
      },
      "geometry": {
        "type": "Point",
        "coordinates": [
          127.141163,
          35.847097
        ]
      }
    },
    {
      "type": "Feature",
      "properties": {
        "name": "조선대학교병원",
        "clCdNm": "상급종합",
        "sido": "전남광주"
      },
      "geometry": {
        "type": "Point",
        "coordinates": [
          126.926147,
          35.139054
        ]
      }
    },
    {
      "type": "Feature",
      "properties": {
        "name": "중앙대학교병원",
        "clCdNm": "상급종합",
        "sido": "서울"
      },
      "geometry": {
        "type": "Point",
        "coordinates": [
          126.960784,
          37.506748
        ]
      }
    },
    {
      "type": "Feature",
      "properties": {
        "name": "충남대학교병원",
        "clCdNm": "상급종합",
        "sido": "대전"
      },
      "geometry": {
        "type": "Point",
        "coordinates": [
          127.415363,
          36.316908
        ]
      }
    },
    {
      "type": "Feature",
      "properties": {
        "name": "충북대학교병원",
        "clCdNm": "상급종합",
        "sido": "충북"
      },
      "geometry": {
        "type": "Point",
        "coordinates": [
          127.461484,
          36.624224
        ]
      }
    },
    {
      "type": "Feature",
      "properties": {
        "name": "칠곡경북대학교병원",
        "clCdNm": "상급종합",
        "sido": "대구"
      },
      "geometry": {
        "type": "Point",
        "coordinates": [
          128.564673,
          35.956421
        ]
      }
    },
    {
      "type": "Feature",
      "properties": {
        "name": "학교법인 건양교육재단 건양대학교병원",
        "clCdNm": "상급종합",
        "sido": "대전"
      },
      "geometry": {
        "type": "Point",
        "coordinates": [
          127.342613,
          36.306642
        ]
      }
    },
    {
      "type": "Feature",
      "properties": {
        "name": "학교법인 고려중앙학원 고려대학교의과대학부속병원(안암병원)",
        "clCdNm": "상급종합",
        "sido": "서울"
      },
      "geometry": {
        "type": "Point",
        "coordinates": [
          127.026354,
          37.587016
        ]
      }
    },
    {
      "type": "Feature",
      "properties": {
        "name": "학교법인 울산공업학원 울산대학교병원",
        "clCdNm": "상급종합",
        "sido": "울산"
      },
      "geometry": {
        "type": "Point",
        "coordinates": [
          129.428912,
          35.52007
        ]
      }
    },
    {
      "type": "Feature",
      "properties": {
        "name": "학교법인가톨릭학원가톨릭대학교서울성모병원",
        "clCdNm": "상급종합",
        "sido": "서울"
      },
      "geometry": {
        "type": "Point",
        "coordinates": [
          127.005115,
          37.500944
        ]
      }
    },
    {
      "type": "Feature",
      "properties": {
        "name": "학교법인성균관대학삼성창원병원",
        "clCdNm": "상급종합",
        "sido": "경남"
      },
      "geometry": {
        "type": "Point",
        "coordinates": [
          128.592377,
          35.242496
        ]
      }
    },
    {
      "type": "Feature",
      "properties": {
        "name": "한림대학교성심병원",
        "clCdNm": "상급종합",
        "sido": "경기"
      },
      "geometry": {
        "type": "Point",
        "coordinates": [
          126.962053,
          37.391757
        ]
      }
    },
    {
      "type": "Feature",
      "properties": {
        "name": "한양대학교병원",
        "clCdNm": "상급종합",
        "sido": "서울"
      },
      "geometry": {
        "type": "Point",
        "coordinates": [
          127.044134,
          37.559657
        ]
      }
    },
    {
      "type": "Feature",
      "properties": {
        "name": "화순전남대학교병원",
        "clCdNm": "상급종합",
        "sido": "전남광주"
      },
      "geometry": {
        "type": "Point",
        "coordinates": [
          127.0025,
          35.059433
        ]
      }
    },
    {
      "type": "Feature",
      "properties": {
        "name": "(의)나사렛의료재단 나사렛국제병원",
        "clCdNm": "종합병원",
        "sido": "인천"
      },
      "geometry": {
        "type": "Point",
        "coordinates": [
          126.670493,
          37.407958
        ]
      }
    },
    {
      "type": "Feature",
      "properties": {
        "name": "(의)성세의료재단 뉴성민병원",
        "clCdNm": "종합병원",
        "sido": "인천"
      },
      "geometry": {
        "type": "Point",
        "coordinates": [
          126.669852,
          37.509775
        ]
      }
    },
    {
      "type": "Feature",
      "properties": {
        "name": "(의)영문의료재단 다보스병원",
        "clCdNm": "종합병원",
        "sido": "경기"
      },
      "geometry": {
        "type": "Point",
        "coordinates": [
          127.211465,
          37.231488
        ]
      }
    },
    {
      "type": "Feature",
      "properties": {
        "name": "(재)미리내천주성삼성직수도회천주성삼병원",
        "clCdNm": "종합병원",
        "sido": "대구"
      },
      "geometry": {
        "type": "Point",
        "coordinates": [
          128.70571,
          35.840252
        ]
      }
    },
    {
      "type": "Feature",
      "properties": {
        "name": "KS병원",
        "clCdNm": "종합병원",
        "sido": "전남광주"
      },
      "geometry": {
        "type": "Point",
        "coordinates": [
          126.833148,
          35.197924
        ]
      }
    },
    {
      "type": "Feature",
      "properties": {
        "name": "가톨릭관동대학교 국제성모병원",
        "clCdNm": "종합병원",
        "sido": "인천"
      },
      "geometry": {
        "type": "Point",
        "coordinates": [
          126.683569,
          37.542343
        ]
      }
    },
    {
      "type": "Feature",
      "properties": {
        "name": "가톨릭대학교 여의도성모병원",
        "clCdNm": "종합병원",
        "sido": "서울"
      },
      "geometry": {
        "type": "Point",
        "coordinates": [
          126.936752,
          37.518325
        ]
      }
    },
    {
      "type": "Feature",
      "properties": {
        "name": "가톨릭대학교 은평성모병원",
        "clCdNm": "종합병원",
        "sido": "서울"
      },
      "geometry": {
        "type": "Point",
        "coordinates": [
          126.916191,
          37.633494
        ]
      }
    },
    {
      "type": "Feature",
      "properties": {
        "name": "가톨릭대학교부천성모병원",
        "clCdNm": "종합병원",
        "sido": "경기"
      },
      "geometry": {
        "type": "Point",
        "coordinates": [
          126.792417,
          37.487116
        ]
      }
    },
    {
      "type": "Feature",
      "properties": {
        "name": "가톨릭대학교의정부성모병원",
        "clCdNm": "종합병원",
        "sido": "경기"
      },
      "geometry": {
        "type": "Point",
        "coordinates": [
          127.077763,
          37.758705
        ]
      }
    },
    {
      "type": "Feature",
      "properties": {
        "name": "강남베드로병원",
        "clCdNm": "종합병원",
        "sido": "서울"
      },
      "geometry": {
        "type": "Point",
        "coordinates": [
          127.039604,
          37.48562
        ]
      }
    },
    {
      "type": "Feature",
      "properties": {
        "name": "강남병원",
        "clCdNm": "종합병원",
        "sido": "경기"
      },
      "geometry": {
        "type": "Point",
        "coordinates": [
          127.111434,
          37.273675
        ]
      }
    },
    {
      "type": "Feature",
      "properties": {
        "name": "강남종합병원",
        "clCdNm": "종합병원",
        "sido": "대구"
      },
      "geometry": {
        "type": "Point",
        "coordinates": [
          128.663912,
          35.882774
        ]
      }
    },
    {
      "type": "Feature",
      "properties": {
        "name": "강동경희대학교병원",
        "clCdNm": "종합병원",
        "sido": "서울"
      },
      "geometry": {
        "type": "Point",
        "coordinates": [
          127.157673,
          37.553536
        ]
      }
    },
    {
      "type": "Feature",
      "properties": {
        "name": "강원대학교병원",
        "clCdNm": "종합병원",
        "sido": "강원"
      },
      "geometry": {
        "type": "Point",
        "coordinates": [
          127.744891,
          37.875161
        ]
      }
    },
    {
      "type": "Feature",
      "properties": {
        "name": "강원특별자치도강릉의료원",
        "clCdNm": "종합병원",
        "sido": "강원"
      },
      "geometry": {
        "type": "Point",
        "coordinates": [
          128.888832,
          37.749283
        ]
      }
    },
    {
      "type": "Feature",
      "properties": {
        "name": "강원특별자치도삼척의료원",
        "clCdNm": "종합병원",
        "sido": "강원"
      },
      "geometry": {
        "type": "Point",
        "coordinates": [
          129.170523,
          37.440022
        ]
      }
    },
    {
      "type": "Feature",
      "properties": {
        "name": "강원특별자치도속초의료원",
        "clCdNm": "종합병원",
        "sido": "강원"
      },
      "geometry": {
        "type": "Point",
        "coordinates": [
          128.589249,
          38.216461
        ]
      }
    },
    {
      "type": "Feature",
      "properties": {
        "name": "강원특별자치도영월의료원",
        "clCdNm": "종합병원",
        "sido": "강원"
      },
      "geometry": {
        "type": "Point",
        "coordinates": [
          128.465239,
          37.186453
        ]
      }
    },
    {
      "type": "Feature",
      "properties": {
        "name": "강원특별자치도원주의료원",
        "clCdNm": "종합병원",
        "sido": "강원"
      },
      "geometry": {
        "type": "Point",
        "coordinates": [
          127.949225,
          37.332608
        ]
      }
    },
    {
      "type": "Feature",
      "properties": {
        "name": "강일병원",
        "clCdNm": "종합병원",
        "sido": "경남"
      },
      "geometry": {
        "type": "Point",
        "coordinates": [
          128.869611,
          35.256703
        ]
      }
    },
    {
      "type": "Feature",
      "properties": {
        "name": "건국대학교 충주병원",
        "clCdNm": "종합병원",
        "sido": "충북"
      },
      "geometry": {
        "type": "Point",
        "coordinates": [
          127.928817,
          36.97898
        ]
      }
    },
    {
      "type": "Feature",
      "properties": {
        "name": "검단탑병원",
        "clCdNm": "종합병원",
        "sido": "인천"
      },
      "geometry": {
        "type": "Point",
        "coordinates": [
          126.671179,
          37.592484
        ]
      }
    },
    {
      "type": "Feature",
      "properties": {
        "name": "경기도의료원 수원병원",
        "clCdNm": "종합병원",
        "sido": "경기"
      },
      "geometry": {
        "type": "Point",
        "coordinates": [
          126.996337,
          37.291892
        ]
      }
    },
    {
      "type": "Feature",
      "properties": {
        "name": "경기도의료원 안성병원",
        "clCdNm": "종합병원",
        "sido": "경기"
      },
      "geometry": {
        "type": "Point",
        "coordinates": [
          127.260386,
          37.01733
        ]
      }
    },
    {
      "type": "Feature",
      "properties": {
        "name": "경기도의료원 이천병원",
        "clCdNm": "종합병원",
        "sido": "경기"
      },
      "geometry": {
        "type": "Point",
        "coordinates": [
          127.433056,
          37.28286
        ]
      }
    },
    {
      "type": "Feature",
      "properties": {
        "name": "경기도의료원의정부병원",
        "clCdNm": "종합병원",
        "sido": "경기"
      },
      "geometry": {
        "type": "Point",
        "coordinates": [
          127.0425,
          37.741161
        ]
      }
    },
    {
      "type": "Feature",
      "properties": {
        "name": "경기도의료원파주병원",
        "clCdNm": "종합병원",
        "sido": "경기"
      },
      "geometry": {
        "type": "Point",
        "coordinates": [
          126.78015,
          37.755065
        ]
      }
    },
    {
      "type": "Feature",
      "properties": {
        "name": "경기도의료원포천병원",
        "clCdNm": "종합병원",
        "sido": "경기"
      },
      "geometry": {
        "type": "Point",
        "coordinates": [
          127.19828,
          37.903316
        ]
      }
    },
    {
      "type": "Feature",
      "properties": {
        "name": "경상남도마산의료원",
        "clCdNm": "종합병원",
        "sido": "경남"
      },
      "geometry": {
        "type": "Point",
        "coordinates": [
          128.565597,
          35.199237
        ]
      }
    },
    {
      "type": "Feature",
      "properties": {
        "name": "경상북도김천의료원",
        "clCdNm": "종합병원",
        "sido": "경북"
      },
      "geometry": {
        "type": "Point",
        "coordinates": [
          128.126439,
          36.122723
        ]
      }
    },
    {
      "type": "Feature",
      "properties": {
        "name": "경상북도안동의료원",
        "clCdNm": "종합병원",
        "sido": "경북"
      },
      "geometry": {
        "type": "Point",
        "coordinates": [
          128.732112,
          36.568221
        ]
      }
    },
    {
      "type": "Feature",
      "properties": {
        "name": "경상북도포항의료원",
        "clCdNm": "종합병원",
        "sido": "경북"
      },
      "geometry": {
        "type": "Point",
        "coordinates": [
          129.354941,
          36.034881
        ]
      }
    },
    {
      "type": "Feature",
      "properties": {
        "name": "경찰병원",
        "clCdNm": "종합병원",
        "sido": "서울"
      },
      "geometry": {
        "type": "Point",
        "coordinates": [
          127.123509,
          37.496384
        ]
      }
    },
    {
      "type": "Feature",
      "properties": {
        "name": "계명대학교대구동산병원",
        "clCdNm": "종합병원",
        "sido": "대구"
      },
      "geometry": {
        "type": "Point",
        "coordinates": [
          128.583132,
          35.869473
        ]
      }
    },
    {
      "type": "Feature",
      "properties": {
        "name": "곽병원",
        "clCdNm": "종합병원",
        "sido": "대구"
      },
      "geometry": {
        "type": "Point",
        "coordinates": [
          128.588585,
          35.871021
        ]
      }
    },
    {
      "type": "Feature",
      "properties": {
        "name": "광명성애병원",
        "clCdNm": "종합병원",
        "sido": "경기"
      },
      "geometry": {
        "type": "Point",
        "coordinates": [
          126.87135,
          37.473666
        ]
      }
    },
    {
      "type": "Feature",
      "properties": {
        "name": "광양사랑병원",
        "clCdNm": "종합병원",
        "sido": "전남광주"
      },
      "geometry": {
        "type": "Point",
        "coordinates": [
          127.696966,
          34.936185
        ]
      }
    },
    {
      "type": "Feature",
      "properties": {
        "name": "광주기독병원",
        "clCdNm": "종합병원",
        "sido": "전남광주"
      },
      "geometry": {
        "type": "Point",
        "coordinates": [
          126.911875,
          35.136665
        ]
      }
    },
    {
      "type": "Feature",
      "properties": {
        "name": "광주병원",
        "clCdNm": "종합병원",
        "sido": "전남광주"
      },
      "geometry": {
        "type": "Point",
        "coordinates": [
          126.928141,
          35.178903
        ]
      }
    },
    {
      "type": "Feature",
      "properties": {
        "name": "광주보훈병원",
        "clCdNm": "종합병원",
        "sido": "전남광주"
      },
      "geometry": {
        "type": "Point",
        "coordinates": [
          126.849672,
          35.207903
        ]
      }
    },
    {
      "type": "Feature",
      "properties": {
        "name": "광주센트럴병원",
        "clCdNm": "종합병원",
        "sido": "전남광주"
      },
      "geometry": {
        "type": "Point",
        "coordinates": [
          126.829107,
          35.185776
        ]
      }
    },
    {
      "type": "Feature",
      "properties": {
        "name": "광주수완병원",
        "clCdNm": "종합병원",
        "sido": "전남광주"
      },
      "geometry": {
        "type": "Point",
        "coordinates": [
          126.824199,
          35.193111
        ]
      }
    },
    {
      "type": "Feature",
      "properties": {
        "name": "광주씨티병원",
        "clCdNm": "종합병원",
        "sido": "전남광주"
      },
      "geometry": {
        "type": "Point",
        "coordinates": [
          126.899485,
          35.117715
        ]
      }
    },
    {
      "type": "Feature",
      "properties": {
        "name": "광주일곡병원",
        "clCdNm": "종합병원",
        "sido": "전남광주"
      },
      "geometry": {
        "type": "Point",
        "coordinates": [
          126.897614,
          35.202854
        ]
      }
    },
    {
      "type": "Feature",
      "properties": {
        "name": "광주한국병원",
        "clCdNm": "종합병원",
        "sido": "전남광주"
      },
      "geometry": {
        "type": "Point",
        "coordinates": [
          126.868816,
          35.156216
        ]
      }
    },
    {
      "type": "Feature",
      "properties": {
        "name": "광주현대병원",
        "clCdNm": "종합병원",
        "sido": "전남광주"
      },
      "geometry": {
        "type": "Point",
        "coordinates": [
          126.897925,
          35.185676
        ]
      }
    },
    {
      "type": "Feature",
      "properties": {
        "name": "광주희망병원",
        "clCdNm": "종합병원",
        "sido": "전남광주"
      },
      "geometry": {
        "type": "Point",
        "coordinates": [
          126.874734,
          35.213494
        ]
      }
    },
    {
      "type": "Feature",
      "properties": {
        "name": "구로성심병원",
        "clCdNm": "종합병원",
        "sido": "서울"
      },
      "geometry": {
        "type": "Point",
        "coordinates": [
          126.866416,
          37.499671
        ]
      }
    },
    {
      "type": "Feature",
      "properties": {
        "name": "구미강동병원",
        "clCdNm": "종합병원",
        "sido": "경북"
      },
      "geometry": {
        "type": "Point",
        "coordinates": [
          128.422869,
          36.096239
        ]
      }
    },
    {
      "type": "Feature",
      "properties": {
        "name": "구포성심병원",
        "clCdNm": "종합병원",
        "sido": "부산"
      },
      "geometry": {
        "type": "Point",
        "coordinates": [
          129.004724,
          35.209713
        ]
      }
    },
    {
      "type": "Feature",
      "properties": {
        "name": "국군수도병원",
        "clCdNm": "종합병원",
        "sido": "경기"
      },
      "geometry": {
        "type": "Point",
        "coordinates": [
          127.149067,
          37.392379
        ]
      }
    },
    {
      "type": "Feature",
      "properties": {
        "name": "국립소방병원",
        "clCdNm": "종합병원",
        "sido": "충북"
      },
      "geometry": {
        "type": "Point",
        "coordinates": [
          127.552637,
          36.904342
        ]
      }
    },
    {
      "type": "Feature",
      "properties": {
        "name": "국립암센터",
        "clCdNm": "종합병원",
        "sido": "경기"
      },
      "geometry": {
        "type": "Point",
        "coordinates": [
          126.78341,
          37.66323
        ]
      }
    },
    {
      "type": "Feature",
      "properties": {
        "name": "국립중앙의료원",
        "clCdNm": "종합병원",
        "sido": "서울"
      },
      "geometry": {
        "type": "Point",
        "coordinates": [
          127.005671,
          37.567214
        ]
      }
    },
    {
      "type": "Feature",
      "properties": {
        "name": "국민건강보험공단일산병원",
        "clCdNm": "종합병원",
        "sido": "경기"
      },
      "geometry": {
        "type": "Point",
        "coordinates": [
          126.79304,
          37.645475
        ]
      }
    },
    {
      "type": "Feature",
      "properties": {
        "name": "근로복지공단 대전병원",
        "clCdNm": "종합병원",
        "sido": "대전"
      },
      "geometry": {
        "type": "Point",
        "coordinates": [
          127.428549,
          36.368398
        ]
      }
    },
    {
      "type": "Feature",
      "properties": {
        "name": "근로복지공단 동해병원",
        "clCdNm": "종합병원",
        "sido": "강원"
      },
      "geometry": {
        "type": "Point",
        "coordinates": [
          129.106078,
          37.532122
        ]
      }
    },
    {
      "type": "Feature",
      "properties": {
        "name": "근로복지공단 순천병원",
        "clCdNm": "종합병원",
        "sido": "전남광주"
      },
      "geometry": {
        "type": "Point",
        "coordinates": [
          127.524927,
          34.961135
        ]
      }
    },
    {
      "type": "Feature",
      "properties": {
        "name": "근로복지공단 창원병원",
        "clCdNm": "종합병원",
        "sido": "경남"
      },
      "geometry": {
        "type": "Point",
        "coordinates": [
          128.671751,
          35.218754
        ]
      }
    },
    {
      "type": "Feature",
      "properties": {
        "name": "근로복지공단 태백병원",
        "clCdNm": "종합병원",
        "sido": "강원"
      },
      "geometry": {
        "type": "Point",
        "coordinates": [
          129.004337,
          37.104096
        ]
      }
    },
    {
      "type": "Feature",
      "properties": {
        "name": "근로복지공단안산병원",
        "clCdNm": "종합병원",
        "sido": "경기"
      },
      "geometry": {
        "type": "Point",
        "coordinates": [
          126.874139,
          37.316727
        ]
      }
    },
    {
      "type": "Feature",
      "properties": {
        "name": "근로복지공단인천병원",
        "clCdNm": "종합병원",
        "sido": "인천"
      },
      "geometry": {
        "type": "Point",
        "coordinates": [
          126.753633,
          37.476702
        ]
      }
    },
    {
      "type": "Feature",
      "properties": {
        "name": "기쁨병원",
        "clCdNm": "종합병원",
        "sido": "서울"
      },
      "geometry": {
        "type": "Point",
        "coordinates": [
          127.018081,
          37.482716
        ]
      }
    },
    {
      "type": "Feature",
      "properties": {
        "name": "나사렛종합병원",
        "clCdNm": "종합병원",
        "sido": "대구"
      },
      "geometry": {
        "type": "Point",
        "coordinates": [
          128.525102,
          35.814701
        ]
      }
    },
    {
      "type": "Feature",
      "properties": {
        "name": "나주종합병원",
        "clCdNm": "종합병원",
        "sido": "전남광주"
      },
      "geometry": {
        "type": "Point",
        "coordinates": [
          126.721397,
          35.036316
        ]
      }
    },
    {
      "type": "Feature",
      "properties": {
        "name": "남양주 한양병원",
        "clCdNm": "종합병원",
        "sido": "경기"
      },
      "geometry": {
        "type": "Point",
        "coordinates": [
          127.204393,
          37.682347
        ]
      }
    },
    {
      "type": "Feature",
      "properties": {
        "name": "노원을지대학교병원",
        "clCdNm": "종합병원",
        "sido": "서울"
      },
      "geometry": {
        "type": "Point",
        "coordinates": [
          127.069935,
          37.636479
        ]
      }
    },
    {
      "type": "Feature",
      "properties": {
        "name": "녹색병원",
        "clCdNm": "종합병원",
        "sido": "서울"
      },
      "geometry": {
        "type": "Point",
        "coordinates": [
          127.086074,
          37.583573
        ]
      }
    },
    {
      "type": "Feature",
      "properties": {
        "name": "당진종합병원",
        "clCdNm": "종합병원",
        "sido": "충남"
      },
      "geometry": {
        "type": "Point",
        "coordinates": [
          126.684449,
          36.9044
        ]
      }
    },
    {
      "type": "Feature",
      "properties": {
        "name": "대구가톨릭대학교 칠곡가톨릭병원",
        "clCdNm": "종합병원",
        "sido": "대구"
      },
      "geometry": {
        "type": "Point",
        "coordinates": [
          128.549389,
          35.934861
        ]
      }
    },
    {
      "type": "Feature",
      "properties": {
        "name": "대구굿모닝병원",
        "clCdNm": "종합병원",
        "sido": "대구"
      },
      "geometry": {
        "type": "Point",
        "coordinates": [
          128.571382,
          35.866107
        ]
      }
    },
    {
      "type": "Feature",
      "properties": {
        "name": "대구의료원",
        "clCdNm": "종합병원",
        "sido": "대구"
      },
      "geometry": {
        "type": "Point",
        "coordinates": [
          128.540587,
          35.85964
        ]
      }
    },
    {
      "type": "Feature",
      "properties": {
        "name": "대구파티마병원",
        "clCdNm": "종합병원",
        "sido": "대구"
      },
      "geometry": {
        "type": "Point",
        "coordinates": [
          128.624407,
          35.884261
        ]
      }
    },
    {
      "type": "Feature",
      "properties": {
        "name": "대동병원",
        "clCdNm": "종합병원",
        "sido": "부산"
      },
      "geometry": {
        "type": "Point",
        "coordinates": [
          129.080203,
          35.204254
        ]
      }
    },
    {
      "type": "Feature",
      "properties": {
        "name": "대림성모병원",
        "clCdNm": "종합병원",
        "sido": "서울"
      },
      "geometry": {
        "type": "Point",
        "coordinates": [
          126.907221,
          37.490698
        ]
      }
    },
    {
      "type": "Feature",
      "properties": {
        "name": "대아의료재단한도병원",
        "clCdNm": "종합병원",
        "sido": "경기"
      },
      "geometry": {
        "type": "Point",
        "coordinates": [
          126.807622,
          37.334059
        ]
      }
    },
    {
      "type": "Feature",
      "properties": {
        "name": "대자인병원",
        "clCdNm": "종합병원",
        "sido": "전북"
      },
      "geometry": {
        "type": "Point",
        "coordinates": [
          127.153471,
          35.845966
        ]
      }
    },
    {
      "type": "Feature",
      "properties": {
        "name": "대전보훈병원",
        "clCdNm": "종합병원",
        "sido": "대전"
      },
      "geometry": {
        "type": "Point",
        "coordinates": [
          127.439642,
          36.447336
        ]
      }
    },
    {
      "type": "Feature",
      "properties": {
        "name": "대전한국병원",
        "clCdNm": "종합병원",
        "sido": "대전"
      },
      "geometry": {
        "type": "Point",
        "coordinates": [
          127.435815,
          36.348201
        ]
      }
    },
    {
      "type": "Feature",
      "properties": {
        "name": "대진의료재단 분당제생병원",
        "clCdNm": "종합병원",
        "sido": "경기"
      },
      "geometry": {
        "type": "Point",
        "coordinates": [
          127.121778,
          37.388204
        ]
      }
    },
    {
      "type": "Feature",
      "properties": {
        "name": "대청병원",
        "clCdNm": "종합병원",
        "sido": "대전"
      },
      "geometry": {
        "type": "Point",
        "coordinates": [
          127.370572,
          36.308239
        ]
      }
    },
    {
      "type": "Feature",
      "properties": {
        "name": "더블유병원",
        "clCdNm": "종합병원",
        "sido": "대구"
      },
      "geometry": {
        "type": "Point",
        "coordinates": [
          128.544948,
          35.852631
        ]
      }
    },
    {
      "type": "Feature",
      "properties": {
        "name": "동국대학교의과대학경주병원",
        "clCdNm": "종합병원",
        "sido": "경북"
      },
      "geometry": {
        "type": "Point",
        "coordinates": [
          129.196658,
          35.858308
        ]
      }
    },
    {
      "type": "Feature",
      "properties": {
        "name": "동국대학교일산불교병원",
        "clCdNm": "종합병원",
        "sido": "경기"
      },
      "geometry": {
        "type": "Point",
        "coordinates": [
          126.806423,
          37.676397
        ]
      }
    },
    {
      "type": "Feature",
      "properties": {
        "name": "동남권원자력의학원원자력병원",
        "clCdNm": "종합병원",
        "sido": "부산"
      },
      "geometry": {
        "type": "Point",
        "coordinates": [
          129.243549,
          35.3214
        ]
      }
    },
    {
      "type": "Feature",
      "properties": {
        "name": "동래봉생병원",
        "clCdNm": "종합병원",
        "sido": "부산"
      },
      "geometry": {
        "type": "Point",
        "coordinates": [
          129.096136,
          35.196922
        ]
      }
    },
    {
      "type": "Feature",
      "properties": {
        "name": "동아병원",
        "clCdNm": "종합병원",
        "sido": "전남광주"
      },
      "geometry": {
        "type": "Point",
        "coordinates": [
          126.899951,
          35.134813
        ]
      }
    },
    {
      "type": "Feature",
      "properties": {
        "name": "드림종합병원",
        "clCdNm": "종합병원",
        "sido": "대구"
      },
      "geometry": {
        "type": "Point",
        "coordinates": [
          128.574491,
          35.839558
        ]
      }
    },
    {
      "type": "Feature",
      "properties": {
        "name": "메디인병원",
        "clCdNm": "종합병원",
        "sido": "경기"
      },
      "geometry": {
        "type": "Point",
        "coordinates": [
          126.766669,
          37.761073
        ]
      }
    },
    {
      "type": "Feature",
      "properties": {
        "name": "메디필드한강병원",
        "clCdNm": "종합병원",
        "sido": "경기"
      },
      "geometry": {
        "type": "Point",
        "coordinates": [
          127.20108,
          37.235396
        ]
      }
    },
    {
      "type": "Feature",
      "properties": {
        "name": "명지성모병원",
        "clCdNm": "종합병원",
        "sido": "서울"
      },
      "geometry": {
        "type": "Point",
        "coordinates": [
          126.899263,
          37.493862
        ]
      }
    },
    {
      "type": "Feature",
      "properties": {
        "name": "목포기독병원",
        "clCdNm": "종합병원",
        "sido": "전남광주"
      },
      "geometry": {
        "type": "Point",
        "coordinates": [
          126.4206,
          34.804533
        ]
      }
    },
    {
      "type": "Feature",
      "properties": {
        "name": "목포시의료원",
        "clCdNm": "종합병원",
        "sido": "전남광주"
      },
      "geometry": {
        "type": "Point",
        "coordinates": [
          126.405363,
          34.803984
        ]
      }
    },
    {
      "type": "Feature",
      "properties": {
        "name": "목포한국병원",
        "clCdNm": "종합병원",
        "sido": "전남광주"
      },
      "geometry": {
        "type": "Point",
        "coordinates": [
          126.416269,
          34.809382
        ]
      }
    },
    {
      "type": "Feature",
      "properties": {
        "name": "미래로21병원",
        "clCdNm": "종합병원",
        "sido": "전남광주"
      },
      "geometry": {
        "type": "Point",
        "coordinates": [
          126.885286,
          35.141033
        ]
      }
    },
    {
      "type": "Feature",
      "properties": {
        "name": "미즈메디병원",
        "clCdNm": "종합병원",
        "sido": "서울"
      },
      "geometry": {
        "type": "Point",
        "coordinates": [
          126.835936,
          37.552218
        ]
      }
    },
    {
      "type": "Feature",
      "properties": {
        "name": "베데스다복음병원",
        "clCdNm": "종합병원",
        "sido": "경남"
      },
      "geometry": {
        "type": "Point",
        "coordinates": [
          129.043592,
          35.353245
        ]
      }
    },
    {
      "type": "Feature",
      "properties": {
        "name": "부민병원",
        "clCdNm": "종합병원",
        "sido": "서울"
      },
      "geometry": {
        "type": "Point",
        "coordinates": [
          126.850927,
          37.556866
        ]
      }
    },
    {
      "type": "Feature",
      "properties": {
        "name": "부산광역시의료원",
        "clCdNm": "종합병원",
        "sido": "부산"
      },
      "geometry": {
        "type": "Point",
        "coordinates": [
          129.059235,
          35.187282
        ]
      }
    },
    {
      "type": "Feature",
      "properties": {
        "name": "부산성모병원(재단법인 천주교부산교구유지재단)",
        "clCdNm": "종합병원",
        "sido": "부산"
      },
      "geometry": {
        "type": "Point",
        "coordinates": [
          129.109125,
          35.110457
        ]
      }
    },
    {
      "type": "Feature",
      "properties": {
        "name": "부안성모병원",
        "clCdNm": "종합병원",
        "sido": "전북"
      },
      "geometry": {
        "type": "Point",
        "coordinates": [
          126.734571,
          35.72484
        ]
      }
    },
    {
      "type": "Feature",
      "properties": {
        "name": "부천세종병원",
        "clCdNm": "종합병원",
        "sido": "경기"
      },
      "geometry": {
        "type": "Point",
        "coordinates": [
          126.791317,
          37.480966
        ]
      }
    },
    {
      "type": "Feature",
      "properties": {
        "name": "부천우리병원",
        "clCdNm": "종합병원",
        "sido": "경기"
      },
      "geometry": {
        "type": "Point",
        "coordinates": [
          126.805203,
          37.520867
        ]
      }
    },
    {
      "type": "Feature",
      "properties": {
        "name": "부평세림병원",
        "clCdNm": "종합병원",
        "sido": "인천"
      },
      "geometry": {
        "type": "Point",
        "coordinates": [
          126.719986,
          37.506872
        ]
      }
    },
    {
      "type": "Feature",
      "properties": {
        "name": "비에스길종합병원",
        "clCdNm": "종합병원",
        "sido": "부산"
      },
      "geometry": {
        "type": "Point",
        "coordinates": [
          129.078427,
          35.182526
        ]
      }
    },
    {
      "type": "Feature",
      "properties": {
        "name": "비에스종합병원",
        "clCdNm": "종합병원",
        "sido": "인천"
      },
      "geometry": {
        "type": "Point",
        "coordinates": [
          126.485992,
          37.736048
        ]
      }
    },
    {
      "type": "Feature",
      "properties": {
        "name": "비에이치에스한서병원",
        "clCdNm": "종합병원",
        "sido": "부산"
      },
      "geometry": {
        "type": "Point",
        "coordinates": [
          129.113104,
          35.16088
        ]
      }
    },
    {
      "type": "Feature",
      "properties": {
        "name": "빌리브세웅병원",
        "clCdNm": "종합병원",
        "sido": "부산"
      },
      "geometry": {
        "type": "Point",
        "coordinates": [
          129.10822,
          35.196014
        ]
      }
    },
    {
      "type": "Feature",
      "properties": {
        "name": "빛가람종합병원",
        "clCdNm": "종합병원",
        "sido": "전남광주"
      },
      "geometry": {
        "type": "Point",
        "coordinates": [
          126.798719,
          35.024215
        ]
      }
    },
    {
      "type": "Feature",
      "properties": {
        "name": "빛고을전남대학교병원",
        "clCdNm": "종합병원",
        "sido": "전남광주"
      },
      "geometry": {
        "type": "Point",
        "coordinates": [
          126.896198,
          35.094193
        ]
      }
    },
    {
      "type": "Feature",
      "properties": {
        "name": "삼육부산병원",
        "clCdNm": "종합병원",
        "sido": "부산"
      },
      "geometry": {
        "type": "Point",
        "coordinates": [
          129.011065,
          35.112767
        ]
      }
    },
    {
      "type": "Feature",
      "properties": {
        "name": "삼육서울병원",
        "clCdNm": "종합병원",
        "sido": "서울"
      },
      "geometry": {
        "type": "Point",
        "coordinates": [
          127.065307,
          37.587991
        ]
      }
    },
    {
      "type": "Feature",
      "properties": {
        "name": "삼일병원",
        "clCdNm": "종합병원",
        "sido": "대구"
      },
      "geometry": {
        "type": "Point",
        "coordinates": [
          128.553583,
          35.832496
        ]
      }
    },
    {
      "type": "Feature",
      "properties": {
        "name": "상무병원",
        "clCdNm": "종합병원",
        "sido": "전남광주"
      },
      "geometry": {
        "type": "Point",
        "coordinates": [
          126.85388,
          35.152751
        ]
      }
    },
    {
      "type": "Feature",
      "properties": {
        "name": "상주적십자병원",
        "clCdNm": "종합병원",
        "sido": "경북"
      },
      "geometry": {
        "type": "Point",
        "coordinates": [
          128.155556,
          36.414622
        ]
      }
    },
    {
      "type": "Feature",
      "properties": {
        "name": "새통영병원",
        "clCdNm": "종합병원",
        "sido": "경남"
      },
      "geometry": {
        "type": "Point",
        "coordinates": [
          128.420717,
          34.865348
        ]
      }
    },
    {
      "type": "Feature",
      "properties": {
        "name": "서광병원",
        "clCdNm": "종합병원",
        "sido": "전남광주"
      },
      "geometry": {
        "type": "Point",
        "coordinates": [
          126.85573,
          35.132595
        ]
      }
    },
    {
      "type": "Feature",
      "properties": {
        "name": "서남대학교병원",
        "clCdNm": "종합병원",
        "sido": "전남광주"
      },
      "geometry": {
        "type": "Point",
        "coordinates": [
          126.91502,
          35.144727
        ]
      }
    },
    {
      "type": "Feature",
      "properties": {
        "name": "서산중앙병원",
        "clCdNm": "종합병원",
        "sido": "충남"
      },
      "geometry": {
        "type": "Point",
        "coordinates": [
          126.503464,
          36.781011
        ]
      }
    },
    {
      "type": "Feature",
      "properties": {
        "name": "서울산보람병원",
        "clCdNm": "종합병원",
        "sido": "울산"
      },
      "geometry": {
        "type": "Point",
        "coordinates": [
          129.121004,
          35.559799
        ]
      }
    },
    {
      "type": "Feature",
      "properties": {
        "name": "서울성심병원",
        "clCdNm": "종합병원",
        "sido": "서울"
      },
      "geometry": {
        "type": "Point",
        "coordinates": [
          127.04973,
          37.584308
        ]
      }
    },
    {
      "type": "Feature",
      "properties": {
        "name": "서울적십자병원",
        "clCdNm": "종합병원",
        "sido": "서울"
      },
      "geometry": {
        "type": "Point",
        "coordinates": [
          126.966997,
          37.56718
        ]
      }
    },
    {
      "type": "Feature",
      "properties": {
        "name": "서울특별시 동부병원",
        "clCdNm": "종합병원",
        "sido": "서울"
      },
      "geometry": {
        "type": "Point",
        "coordinates": [
          127.031341,
          37.575368
        ]
      }
    },
    {
      "type": "Feature",
      "properties": {
        "name": "서울특별시보라매병원",
        "clCdNm": "종합병원",
        "sido": "서울"
      },
      "geometry": {
        "type": "Point",
        "coordinates": [
          126.923906,
          37.493441
        ]
      }
    },
    {
      "type": "Feature",
      "properties": {
        "name": "서울특별시서남병원",
        "clCdNm": "종합병원",
        "sido": "서울"
      },
      "geometry": {
        "type": "Point",
        "coordinates": [
          126.833153,
          37.51202
        ]
      }
    },
    {
      "type": "Feature",
      "properties": {
        "name": "서울특별시서울의료원",
        "clCdNm": "종합병원",
        "sido": "서울"
      },
      "geometry": {
        "type": "Point",
        "coordinates": [
          127.097831,
          37.613276
        ]
      }
    },
    {
      "type": "Feature",
      "properties": {
        "name": "서울현대병원",
        "clCdNm": "종합병원",
        "sido": "서울"
      },
      "geometry": {
        "type": "Point",
        "coordinates": [
          127.02852,
          37.640256
        ]
      }
    },
    {
      "type": "Feature",
      "properties": {
        "name": "선한병원",
        "clCdNm": "종합병원",
        "sido": "전남광주"
      },
      "geometry": {
        "type": "Point",
        "coordinates": [
          126.886993,
          35.161596
        ]
      }
    },
    {
      "type": "Feature",
      "properties": {
        "name": "성가롤로병원",
        "clCdNm": "종합병원",
        "sido": "전남광주"
      },
      "geometry": {
        "type": "Point",
        "coordinates": [
          127.543707,
          34.964733
        ]
      }
    },
    {
      "type": "Feature",
      "properties": {
        "name": "성남시의료원",
        "clCdNm": "종합병원",
        "sido": "경기"
      },
      "geometry": {
        "type": "Point",
        "coordinates": [
          127.139065,
          37.444994
        ]
      }
    },
    {
      "type": "Feature",
      "properties": {
        "name": "성남중앙병원",
        "clCdNm": "종합병원",
        "sido": "경기"
      },
      "geometry": {
        "type": "Point",
        "coordinates": [
          127.161993,
          37.45285
        ]
      }
    },
    {
      "type": "Feature",
      "properties": {
        "name": "성심의료재단강동성심병원",
        "clCdNm": "종합병원",
        "sido": "서울"
      },
      "geometry": {
        "type": "Point",
        "coordinates": [
          127.135378,
          37.535997
        ]
      }
    },
    {
      "type": "Feature",
      "properties": {
        "name": "성애의료재단 성애병원",
        "clCdNm": "종합병원",
        "sido": "서울"
      },
      "geometry": {
        "type": "Point",
        "coordinates": [
          126.9225,
          37.512027
        ]
      }
    },
    {
      "type": "Feature",
      "properties": {
        "name": "세란병원",
        "clCdNm": "종합병원",
        "sido": "서울"
      },
      "geometry": {
        "type": "Point",
        "coordinates": [
          126.957461,
          37.575184
        ]
      }
    },
    {
      "type": "Feature",
      "properties": {
        "name": "세종여주병원",
        "clCdNm": "종합병원",
        "sido": "경기"
      },
      "geometry": {
        "type": "Point",
        "coordinates": [
          127.6253,
          37.301484
        ]
      }
    },
    {
      "type": "Feature",
      "properties": {
        "name": "세종충남대학교병원",
        "clCdNm": "종합병원",
        "sido": "세종시"
      },
      "geometry": {
        "type": "Point",
        "coordinates": [
          127.257943,
          36.519513
        ]
      }
    },
    {
      "type": "Feature",
      "properties": {
        "name": "순천의료재단 성남정병원",
        "clCdNm": "종합병원",
        "sido": "경기"
      },
      "geometry": {
        "type": "Point",
        "coordinates": [
          127.129005,
          37.439859
        ]
      }
    },
    {
      "type": "Feature",
      "properties": {
        "name": "순천중앙병원",
        "clCdNm": "종합병원",
        "sido": "전남광주"
      },
      "geometry": {
        "type": "Point",
        "coordinates": [
          127.484446,
          34.951457
        ]
      }
    },
    {
      "type": "Feature",
      "properties": {
        "name": "순천향대학교 부속 구미병원",
        "clCdNm": "종합병원",
        "sido": "경북"
      },
      "geometry": {
        "type": "Point",
        "coordinates": [
          128.382738,
          36.102918
        ]
      }
    },
    {
      "type": "Feature",
      "properties": {
        "name": "순천향대학교 부속 서울병원",
        "clCdNm": "종합병원",
        "sido": "서울"
      },
      "geometry": {
        "type": "Point",
        "coordinates": [
          127.004258,
          37.533804
        ]
      }
    },
    {
      "type": "Feature",
      "properties": {
        "name": "순천향대학교부속 천안병원",
        "clCdNm": "종합병원",
        "sido": "충남"
      },
      "geometry": {
        "type": "Point",
        "coordinates": [
          127.135859,
          36.802738
        ]
      }
    },
    {
      "type": "Feature",
      "properties": {
        "name": "신가병원",
        "clCdNm": "종합병원",
        "sido": "전남광주"
      },
      "geometry": {
        "type": "Point",
        "coordinates": [
          126.829653,
          35.177415
        ]
      }
    },
    {
      "type": "Feature",
      "properties": {
        "name": "씨엠병원",
        "clCdNm": "종합병원",
        "sido": "서울"
      },
      "geometry": {
        "type": "Point",
        "coordinates": [
          126.904186,
          37.51886
        ]
      }
    },
    {
      "type": "Feature",
      "properties": {
        "name": "아산충무병원",
        "clCdNm": "종합병원",
        "sido": "충남"
      },
      "geometry": {
        "type": "Point",
        "coordinates": [
          127.019806,
          36.779265
        ]
      }
    },
    {
      "type": "Feature",
      "properties": {
        "name": "안동성소병원",
        "clCdNm": "종합병원",
        "sido": "경북"
      },
      "geometry": {
        "type": "Point",
        "coordinates": [
          128.722817,
          36.567242
        ]
      }
    },
    {
      "type": "Feature",
      "properties": {
        "name": "안성성모병원",
        "clCdNm": "종합병원",
        "sido": "경기"
      },
      "geometry": {
        "type": "Point",
        "coordinates": [
          127.270921,
          37.006218
        ]
      }
    },
    {
      "type": "Feature",
      "properties": {
        "name": "양산성모병원",
        "clCdNm": "종합병원",
        "sido": "경남"
      },
      "geometry": {
        "type": "Point",
        "coordinates": [
          129.164514,
          35.406363
        ]
      }
    },
    {
      "type": "Feature",
      "properties": {
        "name": "에스포항병원",
        "clCdNm": "종합병원",
        "sido": "경북"
      },
      "geometry": {
        "type": "Point",
        "coordinates": [
          129.331454,
          36.034884
        ]
      }
    },
    {
      "type": "Feature",
      "properties": {
        "name": "여수전남병원",
        "clCdNm": "종합병원",
        "sido": "전남광주"
      },
      "geometry": {
        "type": "Point",
        "coordinates": [
          127.728018,
          34.745067
        ]
      }
    },
    {
      "type": "Feature",
      "properties": {
        "name": "여천전남병원",
        "clCdNm": "종합병원",
        "sido": "전남광주"
      },
      "geometry": {
        "type": "Point",
        "coordinates": [
          127.654229,
          34.769028
        ]
      }
    },
    {
      "type": "Feature",
      "properties": {
        "name": "연세대학교 의과대학 용인세브란스병원",
        "clCdNm": "종합병원",
        "sido": "경기"
      },
      "geometry": {
        "type": "Point",
        "coordinates": [
          127.148514,
          37.270805
        ]
      }
    },
    {
      "type": "Feature",
      "properties": {
        "name": "연세에스병원",
        "clCdNm": "종합병원",
        "sido": "경남"
      },
      "geometry": {
        "type": "Point",
        "coordinates": [
          128.698347,
          35.154727
        ]
      }
    },
    {
      "type": "Feature",
      "properties": {
        "name": "영광종합병원",
        "clCdNm": "종합병원",
        "sido": "전남광주"
      },
      "geometry": {
        "type": "Point",
        "coordinates": [
          126.498978,
          35.284461
        ]
      }
    },
    {
      "type": "Feature",
      "properties": {
        "name": "영남대학교의과대학부속영천병원",
        "clCdNm": "종합병원",
        "sido": "경북"
      },
      "geometry": {
        "type": "Point",
        "coordinates": [
          128.913212,
          35.957285
        ]
      }
    },
    {
      "type": "Feature",
      "properties": {
        "name": "영도병원",
        "clCdNm": "종합병원",
        "sido": "부산"
      },
      "geometry": {
        "type": "Point",
        "coordinates": [
          129.040524,
          35.092242
        ]
      }
    },
    {
      "type": "Feature",
      "properties": {
        "name": "영주적십자병원",
        "clCdNm": "종합병원",
        "sido": "경북"
      },
      "geometry": {
        "type": "Point",
        "coordinates": [
          128.603902,
          36.825269
        ]
      }
    },
    {
      "type": "Feature",
      "properties": {
        "name": "오산한국병원",
        "clCdNm": "종합병원",
        "sido": "경기"
      },
      "geometry": {
        "type": "Point",
        "coordinates": [
          127.075366,
          37.141271
        ]
      }
    },
    {
      "type": "Feature",
      "properties": {
        "name": "온누리병원",
        "clCdNm": "종합병원",
        "sido": "인천"
      },
      "geometry": {
        "type": "Point",
        "coordinates": [
          126.654336,
          37.602793
        ]
      }
    },
    {
      "type": "Feature",
      "properties": {
        "name": "온재병원",
        "clCdNm": "종합병원",
        "sido": "강원"
      },
      "geometry": {
        "type": "Point",
        "coordinates": [
          128.57839,
          38.198001
        ]
      }
    },
    {
      "type": "Feature",
      "properties": {
        "name": "우리들병원",
        "clCdNm": "종합병원",
        "sido": "서울"
      },
      "geometry": {
        "type": "Point",
        "coordinates": [
          126.796327,
          37.562045
        ]
      }
    },
    {
      "type": "Feature",
      "properties": {
        "name": "운암한국병원",
        "clCdNm": "종합병원",
        "sido": "전남광주"
      },
      "geometry": {
        "type": "Point",
        "coordinates": [
          126.869669,
          35.185004
        ]
      }
    },
    {
      "type": "Feature",
      "properties": {
        "name": "울산병원",
        "clCdNm": "종합병원",
        "sido": "울산"
      },
      "geometry": {
        "type": "Point",
        "coordinates": [
          129.32311,
          35.546265
        ]
      }
    },
    {
      "type": "Feature",
      "properties": {
        "name": "울산엘리야병원",
        "clCdNm": "종합병원",
        "sido": "울산"
      },
      "geometry": {
        "type": "Point",
        "coordinates": [
          129.350537,
          35.628863
        ]
      }
    },
    {
      "type": "Feature",
      "properties": {
        "name": "원광대학교 산본병원",
        "clCdNm": "종합병원",
        "sido": "경기"
      },
      "geometry": {
        "type": "Point",
        "coordinates": [
          126.933615,
          37.359413
        ]
      }
    },
    {
      "type": "Feature",
      "properties": {
        "name": "의료법인 갈렌의료재단 박병원",
        "clCdNm": "종합병원",
        "sido": "경기"
      },
      "geometry": {
        "type": "Point",
        "coordinates": [
          127.057001,
          37.048266
        ]
      }
    },
    {
      "type": "Feature",
      "properties": {
        "name": "의료법인 강릉동인병원",
        "clCdNm": "종합병원",
        "sido": "강원"
      },
      "geometry": {
        "type": "Point",
        "coordinates": [
          128.90735,
          37.77435
        ]
      }
    },
    {
      "type": "Feature",
      "properties": {
        "name": "의료법인 거붕 백병원",
        "clCdNm": "종합병원",
        "sido": "경남"
      },
      "geometry": {
        "type": "Point",
        "coordinates": [
          128.626166,
          34.873609
        ]
      }
    },
    {
      "type": "Feature",
      "properties": {
        "name": "의료법인 건명의료재단 중앙제일병원",
        "clCdNm": "종합병원",
        "sido": "충북"
      },
      "geometry": {
        "type": "Point",
        "coordinates": [
          127.440404,
          36.858563
        ]
      }
    },
    {
      "type": "Feature",
      "properties": {
        "name": "의료법인 광혜의료재단 광혜병원",
        "clCdNm": "종합병원",
        "sido": "부산"
      },
      "geometry": {
        "type": "Point",
        "coordinates": [
          129.071148,
          35.20701
        ]
      }
    },
    {
      "type": "Feature",
      "properties": {
        "name": "의료법인 근원의료재단 경산중앙병원",
        "clCdNm": "종합병원",
        "sido": "경북"
      },
      "geometry": {
        "type": "Point",
        "coordinates": [
          128.740191,
          35.80888
        ]
      }
    },
    {
      "type": "Feature",
      "properties": {
        "name": "의료법인 남촌의료재단 시화병원",
        "clCdNm": "종합병원",
        "sido": "경기"
      },
      "geometry": {
        "type": "Point",
        "coordinates": [
          126.736942,
          37.349931
        ]
      }
    },
    {
      "type": "Feature",
      "properties": {
        "name": "의료법인 녹산의료재단동수원병원",
        "clCdNm": "종합병원",
        "sido": "경기"
      },
      "geometry": {
        "type": "Point",
        "coordinates": [
          127.034549,
          37.278065
        ]
      }
    },
    {
      "type": "Feature",
      "properties": {
        "name": "의료법인 대우의료재단대우병원",
        "clCdNm": "종합병원",
        "sido": "경남"
      },
      "geometry": {
        "type": "Point",
        "coordinates": [
          128.721652,
          34.871299
        ]
      }
    },
    {
      "type": "Feature",
      "properties": {
        "name": "의료법인 덕산의료재단 수원덕산병원",
        "clCdNm": "종합병원",
        "sido": "경기"
      },
      "geometry": {
        "type": "Point",
        "coordinates": [
          126.974399,
          37.25861
        ]
      }
    },
    {
      "type": "Feature",
      "properties": {
        "name": "의료법인 동강의료재단 동강병원",
        "clCdNm": "종합병원",
        "sido": "울산"
      },
      "geometry": {
        "type": "Point",
        "coordinates": [
          129.301963,
          35.553426
        ]
      }
    },
    {
      "type": "Feature",
      "properties": {
        "name": "의료법인 동강의료재단 동천동강병원",
        "clCdNm": "종합병원",
        "sido": "울산"
      },
      "geometry": {
        "type": "Point",
        "coordinates": [
          129.350438,
          35.568536
        ]
      }
    },
    {
      "type": "Feature",
      "properties": {
        "name": "의료법인 동해동인병원",
        "clCdNm": "종합병원",
        "sido": "강원"
      },
      "geometry": {
        "type": "Point",
        "coordinates": [
          129.107462,
          37.529942
        ]
      }
    },
    {
      "type": "Feature",
      "properties": {
        "name": "의료법인 록향의료재단 신천연합병원",
        "clCdNm": "종합병원",
        "sido": "경기"
      },
      "geometry": {
        "type": "Point",
        "coordinates": [
          126.789493,
          37.444515
        ]
      }
    },
    {
      "type": "Feature",
      "properties": {
        "name": "의료법인 명인의료재단 화홍병원",
        "clCdNm": "종합병원",
        "sido": "경기"
      },
      "geometry": {
        "type": "Point",
        "coordinates": [
          126.963908,
          37.260127
        ]
      }
    },
    {
      "type": "Feature",
      "properties": {
        "name": "의료법인 명지의료재단 명지병원",
        "clCdNm": "종합병원",
        "sido": "충북"
      },
      "geometry": {
        "type": "Point",
        "coordinates": [
          128.233951,
          37.163468
        ]
      }
    },
    {
      "type": "Feature",
      "properties": {
        "name": "의료법인 문병욱의료재단 진주고려병원",
        "clCdNm": "종합병원",
        "sido": "경남"
      },
      "geometry": {
        "type": "Point",
        "coordinates": [
          128.092086,
          35.178491
        ]
      }
    },
    {
      "type": "Feature",
      "properties": {
        "name": "의료법인 박애의료재단 박애병원",
        "clCdNm": "종합병원",
        "sido": "경기"
      },
      "geometry": {
        "type": "Point",
        "coordinates": [
          127.089076,
          36.993064
        ]
      }
    },
    {
      "type": "Feature",
      "properties": {
        "name": "의료법인 백제병원",
        "clCdNm": "종합병원",
        "sido": "충남"
      },
      "geometry": {
        "type": "Point",
        "coordinates": [
          127.094474,
          36.192193
        ]
      }
    },
    {
      "type": "Feature",
      "properties": {
        "name": "의료법인 서명의료재단 세명종합병원",
        "clCdNm": "종합병원",
        "sido": "경북"
      },
      "geometry": {
        "type": "Point",
        "coordinates": [
          128.737169,
          35.826333
        ]
      }
    },
    {
      "type": "Feature",
      "properties": {
        "name": "의료법인 석경의료재단 센트럴병원",
        "clCdNm": "종합병원",
        "sido": "경기"
      },
      "geometry": {
        "type": "Point",
        "coordinates": [
          126.728127,
          37.336908
        ]
      }
    },
    {
      "type": "Feature",
      "properties": {
        "name": "의료법인 성념의료재단맑은샘병원",
        "clCdNm": "종합병원",
        "sido": "경남"
      },
      "geometry": {
        "type": "Point",
        "coordinates": [
          128.643758,
          34.897835
        ]
      }
    },
    {
      "type": "Feature",
      "properties": {
        "name": "의료법인 성수의료재단 인천백병원",
        "clCdNm": "종합병원",
        "sido": "인천"
      },
      "geometry": {
        "type": "Point",
        "coordinates": [
          126.645838,
          37.481704
        ]
      }
    },
    {
      "type": "Feature",
      "properties": {
        "name": "의료법인 센텀의료재단 센텀종합병원",
        "clCdNm": "종합병원",
        "sido": "부산"
      },
      "geometry": {
        "type": "Point",
        "coordinates": [
          129.114419,
          35.16683
        ]
      }
    },
    {
      "type": "Feature",
      "properties": {
        "name": "의료법인 송은의료재단 울산시티병원",
        "clCdNm": "종합병원",
        "sido": "울산"
      },
      "geometry": {
        "type": "Point",
        "coordinates": [
          129.359034,
          35.582845
        ]
      }
    },
    {
      "type": "Feature",
      "properties": {
        "name": "의료법인 양진의료재단 평택성모병원",
        "clCdNm": "종합병원",
        "sido": "경기"
      },
      "geometry": {
        "type": "Point",
        "coordinates": [
          127.074333,
          37.008419
        ]
      }
    },
    {
      "type": "Feature",
      "properties": {
        "name": "의료법인 영동의료재단 의정부백병원",
        "clCdNm": "종합병원",
        "sido": "경기"
      },
      "geometry": {
        "type": "Point",
        "coordinates": [
          127.062237,
          37.745326
        ]
      }
    },
    {
      "type": "Feature",
      "properties": {
        "name": "의료법인 영서의료재단 천안충무병원",
        "clCdNm": "종합병원",
        "sido": "충남"
      },
      "geometry": {
        "type": "Point",
        "coordinates": [
          127.131494,
          36.797408
        ]
      }
    },
    {
      "type": "Feature",
      "properties": {
        "name": "의료법인 영제 의료재단 엔케이세종병원",
        "clCdNm": "종합병원",
        "sido": "세종시"
      },
      "geometry": {
        "type": "Point",
        "coordinates": [
          127.262258,
          36.479623
        ]
      }
    },
    {
      "type": "Feature",
      "properties": {
        "name": "의료법인 영훈의료재단 대전선병원",
        "clCdNm": "종합병원",
        "sido": "대전"
      },
      "geometry": {
        "type": "Point",
        "coordinates": [
          127.410414,
          36.336067
        ]
      }
    },
    {
      "type": "Feature",
      "properties": {
        "name": "의료법인 예당의료재단 예산종합병원",
        "clCdNm": "종합병원",
        "sido": "충남"
      },
      "geometry": {
        "type": "Point",
        "coordinates": [
          126.837972,
          36.691074
        ]
      }
    },
    {
      "type": "Feature",
      "properties": {
        "name": "의료법인 오성의료재단 동군산병원",
        "clCdNm": "종합병원",
        "sido": "전북"
      },
      "geometry": {
        "type": "Point",
        "coordinates": [
          126.737162,
          35.977483
        ]
      }
    },
    {
      "type": "Feature",
      "properties": {
        "name": "의료법인 온그룹의료재단 온병원",
        "clCdNm": "종합병원",
        "sido": "부산"
      },
      "geometry": {
        "type": "Point",
        "coordinates": [
          129.050428,
          35.157436
        ]
      }
    },
    {
      "type": "Feature",
      "properties": {
        "name": "의료법인 우범의료재단 장흥종합병원",
        "clCdNm": "종합병원",
        "sido": "전남광주"
      },
      "geometry": {
        "type": "Point",
        "coordinates": [
          126.910916,
          34.677131
        ]
      }
    },
    {
      "type": "Feature",
      "properties": {
        "name": "의료법인 원광의료재단 원광종합병원",
        "clCdNm": "종합병원",
        "sido": "경기"
      },
      "geometry": {
        "type": "Point",
        "coordinates": [
          127.00811,
          37.210137
        ]
      }
    },
    {
      "type": "Feature",
      "properties": {
        "name": "의료법인 은성의료재단 좋은강안병원",
        "clCdNm": "종합병원",
        "sido": "부산"
      },
      "geometry": {
        "type": "Point",
        "coordinates": [
          129.110622,
          35.150069
        ]
      }
    },
    {
      "type": "Feature",
      "properties": {
        "name": "의료법인 은성의료재단 좋은삼선병원",
        "clCdNm": "종합병원",
        "sido": "부산"
      },
      "geometry": {
        "type": "Point",
        "coordinates": [
          129.008246,
          35.150416
        ]
      }
    },
    {
      "type": "Feature",
      "properties": {
        "name": "의료법인 은성의료재단 좋은삼정병원",
        "clCdNm": "종합병원",
        "sido": "울산"
      },
      "geometry": {
        "type": "Point",
        "coordinates": [
          129.268824,
          35.552895
        ]
      }
    },
    {
      "type": "Feature",
      "properties": {
        "name": "의료법인 은혜와감사의료재단 화성중앙종합병원",
        "clCdNm": "종합병원",
        "sido": "경기"
      },
      "geometry": {
        "type": "Point",
        "coordinates": [
          126.91078,
          37.131351
        ]
      }
    },
    {
      "type": "Feature",
      "properties": {
        "name": "의료법인 인당의료재단 부민병원",
        "clCdNm": "종합병원",
        "sido": "부산"
      },
      "geometry": {
        "type": "Point",
        "coordinates": [
          129.011212,
          35.211928
        ]
      }
    },
    {
      "type": "Feature",
      "properties": {
        "name": "의료법인 인당의료재단 해운대부민병원",
        "clCdNm": "종합병원",
        "sido": "부산"
      },
      "geometry": {
        "type": "Point",
        "coordinates": [
          129.155654,
          35.161421
        ]
      }
    },
    {
      "type": "Feature",
      "properties": {
        "name": "의료법인 인천사랑병원",
        "clCdNm": "종합병원",
        "sido": "인천"
      },
      "geometry": {
        "type": "Point",
        "coordinates": [
          126.680709,
          37.462204
        ]
      }
    },
    {
      "type": "Feature",
      "properties": {
        "name": "의료법인 인화재단 한국병원",
        "clCdNm": "종합병원",
        "sido": "충북"
      },
      "geometry": {
        "type": "Point",
        "coordinates": [
          127.496538,
          36.619507
        ]
      }
    },
    {
      "type": "Feature",
      "properties": {
        "name": "의료법인 일심의료재단 포천우리병원",
        "clCdNm": "종합병원",
        "sido": "경기"
      },
      "geometry": {
        "type": "Point",
        "coordinates": [
          127.148186,
          37.827471
        ]
      }
    },
    {
      "type": "Feature",
      "properties": {
        "name": "의료법인 자산의료재단 제천서울병원",
        "clCdNm": "종합병원",
        "sido": "충북"
      },
      "geometry": {
        "type": "Point",
        "coordinates": [
          128.206235,
          37.138611
        ]
      }
    },
    {
      "type": "Feature",
      "properties": {
        "name": "의료법인 정산의료재단 효성병원",
        "clCdNm": "종합병원",
        "sido": "충북"
      },
      "geometry": {
        "type": "Point",
        "coordinates": [
          127.495337,
          36.624479
        ]
      }
    },
    {
      "type": "Feature",
      "properties": {
        "name": "의료법인 정안의료재단 중앙병원",
        "clCdNm": "종합병원",
        "sido": "울산"
      },
      "geometry": {
        "type": "Point",
        "coordinates": [
          129.304645,
          35.532242
        ]
      }
    },
    {
      "type": "Feature",
      "properties": {
        "name": "의료법인 중앙의료재단 중앙병원",
        "clCdNm": "종합병원",
        "sido": "제주"
      },
      "geometry": {
        "type": "Point",
        "coordinates": [
          126.470529,
          33.492326
        ]
      }
    },
    {
      "type": "Feature",
      "properties": {
        "name": "의료법인 청구성심병원",
        "clCdNm": "종합병원",
        "sido": "서울"
      },
      "geometry": {
        "type": "Point",
        "coordinates": [
          126.919701,
          37.620861
        ]
      }
    },
    {
      "type": "Feature",
      "properties": {
        "name": "의료법인 토마스의료재단 윌스기념병원",
        "clCdNm": "종합병원",
        "sido": "경기"
      },
      "geometry": {
        "type": "Point",
        "coordinates": [
          127.025544,
          37.265323
        ]
      }
    },
    {
      "type": "Feature",
      "properties": {
        "name": "의료법인 플러스의료재단 단원병원",
        "clCdNm": "종합병원",
        "sido": "경기"
      },
      "geometry": {
        "type": "Point",
        "coordinates": [
          126.813498,
          37.300228
        ]
      }
    },
    {
      "type": "Feature",
      "properties": {
        "name": "의료법인 행도의료재단 해동병원",
        "clCdNm": "종합병원",
        "sido": "부산"
      },
      "geometry": {
        "type": "Point",
        "coordinates": [
          129.043866,
          35.091944
        ]
      }
    },
    {
      "type": "Feature",
      "properties": {
        "name": "의료법인 혜인의료재단 한국병원",
        "clCdNm": "종합병원",
        "sido": "제주"
      },
      "geometry": {
        "type": "Point",
        "coordinates": [
          126.517062,
          33.500233
        ]
      }
    },
    {
      "type": "Feature",
      "properties": {
        "name": "의료법인 힐링의료재단 옥천성모병원",
        "clCdNm": "종합병원",
        "sido": "충북"
      },
      "geometry": {
        "type": "Point",
        "coordinates": [
          127.57201,
          36.313329
        ]
      }
    },
    {
      "type": "Feature",
      "properties": {
        "name": "의료법인갑을의료재단 갑을장유병원",
        "clCdNm": "종합병원",
        "sido": "경남"
      },
      "geometry": {
        "type": "Point",
        "coordinates": [
          128.805617,
          35.208665
        ]
      }
    },
    {
      "type": "Feature",
      "properties": {
        "name": "의료법인거명의료재단 영광기독병원",
        "clCdNm": "종합병원",
        "sido": "전남광주"
      },
      "geometry": {
        "type": "Point",
        "coordinates": [
          126.510877,
          35.274938
        ]
      }
    },
    {
      "type": "Feature",
      "properties": {
        "name": "의료법인구의료재단 구병원",
        "clCdNm": "종합병원",
        "sido": "대구"
      },
      "geometry": {
        "type": "Point",
        "coordinates": [
          128.541444,
          35.850624
        ]
      }
    },
    {
      "type": "Feature",
      "properties": {
        "name": "의료법인대송의료재단 무안병원",
        "clCdNm": "종합병원",
        "sido": "전남광주"
      },
      "geometry": {
        "type": "Point",
        "coordinates": [
          126.489398,
          34.99163
        ]
      }
    },
    {
      "type": "Feature",
      "properties": {
        "name": "의료법인대인의료재단 다니엘종합병원",
        "clCdNm": "종합병원",
        "sido": "경기"
      },
      "geometry": {
        "type": "Point",
        "coordinates": [
          126.769476,
          37.512307
        ]
      }
    },
    {
      "type": "Feature",
      "properties": {
        "name": "의료법인덕산의료재단김천제일병원",
        "clCdNm": "종합병원",
        "sido": "경북"
      },
      "geometry": {
        "type": "Point",
        "coordinates": [
          128.118792,
          36.1354
        ]
      }
    },
    {
      "type": "Feature",
      "properties": {
        "name": "의료법인동신의료재단 동신병원",
        "clCdNm": "종합병원",
        "sido": "서울"
      },
      "geometry": {
        "type": "Point",
        "coordinates": [
          126.936425,
          37.581332
        ]
      }
    },
    {
      "type": "Feature",
      "properties": {
        "name": "의료법인동춘의료재단문경제일병원",
        "clCdNm": "종합병원",
        "sido": "경북"
      },
      "geometry": {
        "type": "Point",
        "coordinates": [
          128.189225,
          36.58444
        ]
      }
    },
    {
      "type": "Feature",
      "properties": {
        "name": "의료법인루가의료재단 나은병원",
        "clCdNm": "종합병원",
        "sido": "인천"
      },
      "geometry": {
        "type": "Point",
        "coordinates": [
          126.679783,
          37.489059
        ]
      }
    },
    {
      "type": "Feature",
      "properties": {
        "name": "의료법인명지의료재단명지병원",
        "clCdNm": "종합병원",
        "sido": "경기"
      },
      "geometry": {
        "type": "Point",
        "coordinates": [
          126.831262,
          37.641995
        ]
      }
    },
    {
      "type": "Feature",
      "properties": {
        "name": "의료법인목포구암의료재단 목포중앙병원",
        "clCdNm": "종합병원",
        "sido": "전남광주"
      },
      "geometry": {
        "type": "Point",
        "coordinates": [
          126.421025,
          34.821392
        ]
      }
    },
    {
      "type": "Feature",
      "properties": {
        "name": "의료법인백송의료재단 굿모닝병원",
        "clCdNm": "종합병원",
        "sido": "경기"
      },
      "geometry": {
        "type": "Point",
        "coordinates": [
          127.120411,
          36.990628
        ]
      }
    },
    {
      "type": "Feature",
      "properties": {
        "name": "의료법인삼백의료재단상주성모병원",
        "clCdNm": "종합병원",
        "sido": "경북"
      },
      "geometry": {
        "type": "Point",
        "coordinates": [
          128.159734,
          36.420391
        ]
      }
    },
    {
      "type": "Feature",
      "properties": {
        "name": "의료법인서울효천의료재단 에이치플러스양지병원",
        "clCdNm": "종합병원",
        "sido": "서울"
      },
      "geometry": {
        "type": "Point",
        "coordinates": [
          126.932569,
          37.484154
        ]
      }
    },
    {
      "type": "Feature",
      "properties": {
        "name": "의료법인석영의료재단창원제일종합병원",
        "clCdNm": "종합병원",
        "sido": "경남"
      },
      "geometry": {
        "type": "Point",
        "coordinates": [
          128.5676,
          35.199085
        ]
      }
    },
    {
      "type": "Feature",
      "properties": {
        "name": "의료법인석천재단고창병원",
        "clCdNm": "종합병원",
        "sido": "전북"
      },
      "geometry": {
        "type": "Point",
        "coordinates": [
          126.693353,
          35.436428
        ]
      }
    },
    {
      "type": "Feature",
      "properties": {
        "name": "의료법인성광의료재단일산차병원",
        "clCdNm": "종합병원",
        "sido": "경기"
      },
      "geometry": {
        "type": "Point",
        "coordinates": [
          126.775737,
          37.654132
        ]
      }
    },
    {
      "type": "Feature",
      "properties": {
        "name": "의료법인성화의료재단  대한병원",
        "clCdNm": "종합병원",
        "sido": "서울"
      },
      "geometry": {
        "type": "Point",
        "coordinates": [
          127.022691,
          37.635475
        ]
      }
    },
    {
      "type": "Feature",
      "properties": {
        "name": "의료법인숭인의료재단 김해복음병원",
        "clCdNm": "종합병원",
        "sido": "경남"
      },
      "geometry": {
        "type": "Point",
        "coordinates": [
          128.893162,
          35.230626
        ]
      }
    },
    {
      "type": "Feature",
      "properties": {
        "name": "의료법인안동병원",
        "clCdNm": "종합병원",
        "sido": "경북"
      },
      "geometry": {
        "type": "Point",
        "coordinates": [
          128.701098,
          36.546741
        ]
      }
    },
    {
      "type": "Feature",
      "properties": {
        "name": "의료법인영경의료재단전주병원",
        "clCdNm": "종합병원",
        "sido": "전북"
      },
      "geometry": {
        "type": "Point",
        "coordinates": [
          127.124825,
          35.815264
        ]
      }
    },
    {
      "type": "Feature",
      "properties": {
        "name": "의료법인영성의료재단 고흥종합병원",
        "clCdNm": "종합병원",
        "sido": "전남광주"
      },
      "geometry": {
        "type": "Point",
        "coordinates": [
          127.293963,
          34.621065
        ]
      }
    },
    {
      "type": "Feature",
      "properties": {
        "name": "의료법인영훈의료재단 유성선병원",
        "clCdNm": "종합병원",
        "sido": "대전"
      },
      "geometry": {
        "type": "Point",
        "coordinates": [
          127.324951,
          36.375172
        ]
      }
    },
    {
      "type": "Feature",
      "properties": {
        "name": "의료법인우리의료재단김포우리병원",
        "clCdNm": "종합병원",
        "sido": "경기"
      },
      "geometry": {
        "type": "Point",
        "coordinates": [
          126.710733,
          37.632332
        ]
      }
    },
    {
      "type": "Feature",
      "properties": {
        "name": "의료법인은성의료재단좋은선린병원",
        "clCdNm": "종합병원",
        "sido": "경북"
      },
      "geometry": {
        "type": "Point",
        "coordinates": [
          129.367037,
          36.048263
        ]
      }
    },
    {
      "type": "Feature",
      "properties": {
        "name": "의료법인인봉의료재단뉴고려병원",
        "clCdNm": "종합병원",
        "sido": "경기"
      },
      "geometry": {
        "type": "Point",
        "coordinates": [
          126.660214,
          37.640959
        ]
      }
    },
    {
      "type": "Feature",
      "properties": {
        "name": "의료법인자인의료재단(더자인병원)",
        "clCdNm": "종합병원",
        "sido": "경기"
      },
      "geometry": {
        "type": "Point",
        "coordinates": [
          126.835751,
          37.622978
        ]
      }
    },
    {
      "type": "Feature",
      "properties": {
        "name": "의료법인정화의료재단 봉생기념병원",
        "clCdNm": "종합병원",
        "sido": "부산"
      },
      "geometry": {
        "type": "Point",
        "coordinates": [
          129.050191,
          35.131026
        ]
      }
    },
    {
      "type": "Feature",
      "properties": {
        "name": "의료법인청아의료재단청아병원",
        "clCdNm": "종합병원",
        "sido": "경남"
      },
      "geometry": {
        "type": "Point",
        "coordinates": [
          128.50965,
          35.248035
        ]
      }
    },
    {
      "type": "Feature",
      "properties": {
        "name": "의료법인청언의료재단 순천제일병원",
        "clCdNm": "종합병원",
        "sido": "전남광주"
      },
      "geometry": {
        "type": "Point",
        "coordinates": [
          127.524175,
          34.954926
        ]
      }
    },
    {
      "type": "Feature",
      "properties": {
        "name": "의료법인칠석의료재단사랑의병원",
        "clCdNm": "종합병원",
        "sido": "경기"
      },
      "geometry": {
        "type": "Point",
        "coordinates": [
          126.844932,
          37.326935
        ]
      }
    },
    {
      "type": "Feature",
      "properties": {
        "name": "의료법인풍산의료재단동부제일병원",
        "clCdNm": "종합병원",
        "sido": "서울"
      },
      "geometry": {
        "type": "Point",
        "coordinates": [
          127.109009,
          37.600709
        ]
      }
    },
    {
      "type": "Feature",
      "properties": {
        "name": "의료법인한국의료재단 순천한국병원",
        "clCdNm": "종합병원",
        "sido": "전남광주"
      },
      "geometry": {
        "type": "Point",
        "coordinates": [
          127.512288,
          34.947767
        ]
      }
    },
    {
      "type": "Feature",
      "properties": {
        "name": "의료법인한마음의료재단 여수제일병원",
        "clCdNm": "종합병원",
        "sido": "전남광주"
      },
      "geometry": {
        "type": "Point",
        "coordinates": [
          127.663545,
          34.765973
        ]
      }
    },
    {
      "type": "Feature",
      "properties": {
        "name": "의료법인한마음의료재단하나병원",
        "clCdNm": "종합병원",
        "sido": "충북"
      },
      "geometry": {
        "type": "Point",
        "coordinates": [
          127.430863,
          36.623505
        ]
      }
    },
    {
      "type": "Feature",
      "properties": {
        "name": "의료법인한성재단포항세명기독병원",
        "clCdNm": "종합병원",
        "sido": "경북"
      },
      "geometry": {
        "type": "Point",
        "coordinates": [
          129.362226,
          36.017717
        ]
      }
    },
    {
      "type": "Feature",
      "properties": {
        "name": "의료법인한전의료재단 한일병원",
        "clCdNm": "종합병원",
        "sido": "서울"
      },
      "geometry": {
        "type": "Point",
        "coordinates": [
          127.029123,
          37.64614
        ]
      }
    },
    {
      "type": "Feature",
      "properties": {
        "name": "의료법인합포의료재단에스엠지연세병원",
        "clCdNm": "종합병원",
        "sido": "경남"
      },
      "geometry": {
        "type": "Point",
        "coordinates": [
          128.561601,
          35.186315
        ]
      }
    },
    {
      "type": "Feature",
      "properties": {
        "name": "의료법인해민의료재단 세안종합병원",
        "clCdNm": "종합병원",
        "sido": "전남광주"
      },
      "geometry": {
        "type": "Point",
        "coordinates": [
          126.380249,
          34.816915
        ]
      }
    },
    {
      "type": "Feature",
      "properties": {
        "name": "의료법인행촌의료재단 해남종합병원",
        "clCdNm": "종합병원",
        "sido": "전남광주"
      },
      "geometry": {
        "type": "Point",
        "coordinates": [
          126.612791,
          34.571797
        ]
      }
    },
    {
      "type": "Feature",
      "properties": {
        "name": "의료법인현경의료재단 광양서울병원",
        "clCdNm": "종합병원",
        "sido": "전남광주"
      },
      "geometry": {
        "type": "Point",
        "coordinates": [
          127.690582,
          34.957936
        ]
      }
    },
    {
      "type": "Feature",
      "properties": {
        "name": "의료법인환명의료재단 조은금강병원",
        "clCdNm": "종합병원",
        "sido": "경남"
      },
      "geometry": {
        "type": "Point",
        "coordinates": [
          128.861533,
          35.262321
        ]
      }
    },
    {
      "type": "Feature",
      "properties": {
        "name": "의산의료재단 강릉고려병원",
        "clCdNm": "종합병원",
        "sido": "강원"
      },
      "geometry": {
        "type": "Point",
        "coordinates": [
          128.899805,
          37.759007
        ]
      }
    },
    {
      "type": "Feature",
      "properties": {
        "name": "이화여자대학교의과대학부속서울병원",
        "clCdNm": "종합병원",
        "sido": "서울"
      },
      "geometry": {
        "type": "Point",
        "coordinates": [
          126.836267,
          37.557263
        ]
      }
    },
    {
      "type": "Feature",
      "properties": {
        "name": "익산병원",
        "clCdNm": "종합병원",
        "sido": "전북"
      },
      "geometry": {
        "type": "Point",
        "coordinates": [
          126.966516,
          35.96165
        ]
      }
    },
    {
      "type": "Feature",
      "properties": {
        "name": "인산의료재단 메트로병원",
        "clCdNm": "종합병원",
        "sido": "경기"
      },
      "geometry": {
        "type": "Point",
        "coordinates": [
          126.935231,
          37.378667
        ]
      }
    },
    {
      "type": "Feature",
      "properties": {
        "name": "인제대학교 상계백병원",
        "clCdNm": "종합병원",
        "sido": "서울"
      },
      "geometry": {
        "type": "Point",
        "coordinates": [
          127.062991,
          37.648541
        ]
      }
    },
    {
      "type": "Feature",
      "properties": {
        "name": "인제대학교 해운대백병원",
        "clCdNm": "종합병원",
        "sido": "부산"
      },
      "geometry": {
        "type": "Point",
        "coordinates": [
          129.182013,
          35.173443
        ]
      }
    },
    {
      "type": "Feature",
      "properties": {
        "name": "인제대학교일산백병원",
        "clCdNm": "종합병원",
        "sido": "경기"
      },
      "geometry": {
        "type": "Point",
        "coordinates": [
          126.75038,
          37.674274
        ]
      }
    },
    {
      "type": "Feature",
      "properties": {
        "name": "인천광역시의료원",
        "clCdNm": "종합병원",
        "sido": "인천"
      },
      "geometry": {
        "type": "Point",
        "coordinates": [
          126.66875,
          37.478743
        ]
      }
    },
    {
      "type": "Feature",
      "properties": {
        "name": "인천기독병원",
        "clCdNm": "종합병원",
        "sido": "인천"
      },
      "geometry": {
        "type": "Point",
        "coordinates": [
          126.632122,
          37.471216
        ]
      }
    },
    {
      "type": "Feature",
      "properties": {
        "name": "인천세종병원",
        "clCdNm": "종합병원",
        "sido": "인천"
      },
      "geometry": {
        "type": "Point",
        "coordinates": [
          126.736872,
          37.532474
        ]
      }
    },
    {
      "type": "Feature",
      "properties": {
        "name": "인천적십자병원",
        "clCdNm": "종합병원",
        "sido": "인천"
      },
      "geometry": {
        "type": "Point",
        "coordinates": [
          126.689654,
          37.418495
        ]
      }
    },
    {
      "type": "Feature",
      "properties": {
        "name": "인천힘찬종합병원",
        "clCdNm": "종합병원",
        "sido": "인천"
      },
      "geometry": {
        "type": "Point",
        "coordinates": [
          126.714713,
          37.401111
        ]
      }
    },
    {
      "type": "Feature",
      "properties": {
        "name": "재단법인 아산사회복지재단 부속 보령아산병원",
        "clCdNm": "종합병원",
        "sido": "충남"
      },
      "geometry": {
        "type": "Point",
        "coordinates": [
          126.622852,
          36.381128
        ]
      }
    },
    {
      "type": "Feature",
      "properties": {
        "name": "재단법인 아산사회복지재단 정읍아산병원",
        "clCdNm": "종합병원",
        "sido": "전북"
      },
      "geometry": {
        "type": "Point",
        "coordinates": [
          126.823413,
          35.588832
        ]
      }
    },
    {
      "type": "Feature",
      "properties": {
        "name": "재단법인베스티안재단베스티안병원",
        "clCdNm": "종합병원",
        "sido": "충북"
      },
      "geometry": {
        "type": "Point",
        "coordinates": [
          127.321641,
          36.636429
        ]
      }
    },
    {
      "type": "Feature",
      "properties": {
        "name": "재단법인베스티안재단베스티안서울병원",
        "clCdNm": "종합병원",
        "sido": "서울"
      },
      "geometry": {
        "type": "Point",
        "coordinates": [
          127.02802,
          37.56511
        ]
      }
    },
    {
      "type": "Feature",
      "properties": {
        "name": "재단법인예수병원유지재단예수병원",
        "clCdNm": "종합병원",
        "sido": "전북"
      },
      "geometry": {
        "type": "Point",
        "coordinates": [
          127.133229,
          35.814392
        ]
      }
    },
    {
      "type": "Feature",
      "properties": {
        "name": "재단법인일신기독교선교회 일신기독병원",
        "clCdNm": "종합병원",
        "sido": "부산"
      },
      "geometry": {
        "type": "Point",
        "coordinates": [
          129.054381,
          35.135783
        ]
      }
    },
    {
      "type": "Feature",
      "properties": {
        "name": "재단법인천주교부산교구유지재단 메리놀병원",
        "clCdNm": "종합병원",
        "sido": "부산"
      },
      "geometry": {
        "type": "Point",
        "coordinates": [
          129.032415,
          35.107684
        ]
      }
    },
    {
      "type": "Feature",
      "properties": {
        "name": "전라남도 강진의료원",
        "clCdNm": "종합병원",
        "sido": "전남광주"
      },
      "geometry": {
        "type": "Point",
        "coordinates": [
          126.757865,
          34.636811
        ]
      }
    },
    {
      "type": "Feature",
      "properties": {
        "name": "전라남도 순천의료원",
        "clCdNm": "종합병원",
        "sido": "전남광주"
      },
      "geometry": {
        "type": "Point",
        "coordinates": [
          127.483468,
          34.95791
        ]
      }
    },
    {
      "type": "Feature",
      "properties": {
        "name": "전북특별자치도 군산의료원",
        "clCdNm": "종합병원",
        "sido": "전북"
      },
      "geometry": {
        "type": "Point",
        "coordinates": [
          126.711741,
          35.954953
        ]
      }
    },
    {
      "type": "Feature",
      "properties": {
        "name": "전북특별자치도 남원의료원",
        "clCdNm": "종합병원",
        "sido": "전북"
      },
      "geometry": {
        "type": "Point",
        "coordinates": [
          127.407317,
          35.431875
        ]
      }
    },
    {
      "type": "Feature",
      "properties": {
        "name": "전주고려병원",
        "clCdNm": "종합병원",
        "sido": "전북"
      },
      "geometry": {
        "type": "Point",
        "coordinates": [
          127.167038,
          35.839881
        ]
      }
    },
    {
      "type": "Feature",
      "properties": {
        "name": "정읍한국병원",
        "clCdNm": "종합병원",
        "sido": "전북"
      },
      "geometry": {
        "type": "Point",
        "coordinates": [
          126.851559,
          35.584341
        ]
      }
    },
    {
      "type": "Feature",
      "properties": {
        "name": "제일병원",
        "clCdNm": "종합병원",
        "sido": "경남"
      },
      "geometry": {
        "type": "Point",
        "coordinates": [
          128.090254,
          35.179472
        ]
      }
    },
    {
      "type": "Feature",
      "properties": {
        "name": "제주대학교병원",
        "clCdNm": "종합병원",
        "sido": "제주"
      },
      "geometry": {
        "type": "Point",
        "coordinates": [
          126.545201,
          33.467208
        ]
      }
    },
    {
      "type": "Feature",
      "properties": {
        "name": "제주특별자치도 서귀포의료원",
        "clCdNm": "종합병원",
        "sido": "제주"
      },
      "geometry": {
        "type": "Point",
        "coordinates": [
          126.563922,
          33.255535
        ]
      }
    },
    {
      "type": "Feature",
      "properties": {
        "name": "제주한라병원",
        "clCdNm": "종합병원",
        "sido": "제주"
      },
      "geometry": {
        "type": "Point",
        "coordinates": [
          126.48504,
          33.489961
        ]
      }
    },
    {
      "type": "Feature",
      "properties": {
        "name": "좋은문화병원",
        "clCdNm": "종합병원",
        "sido": "부산"
      },
      "geometry": {
        "type": "Point",
        "coordinates": [
          129.059092,
          35.140888
        ]
      }
    },
    {
      "type": "Feature",
      "properties": {
        "name": "중앙대학교광명병원",
        "clCdNm": "종합병원",
        "sido": "경기"
      },
      "geometry": {
        "type": "Point",
        "coordinates": [
          126.88591,
          37.424597
        ]
      }
    },
    {
      "type": "Feature",
      "properties": {
        "name": "차의과학대학교 강남차병원",
        "clCdNm": "종합병원",
        "sido": "서울"
      },
      "geometry": {
        "type": "Point",
        "coordinates": [
          127.034543,
          37.506701
        ]
      }
    },
    {
      "type": "Feature",
      "properties": {
        "name": "차의과학대학교부속구미차병원",
        "clCdNm": "종합병원",
        "sido": "경북"
      },
      "geometry": {
        "type": "Point",
        "coordinates": [
          128.340541,
          36.114532
        ]
      }
    },
    {
      "type": "Feature",
      "properties": {
        "name": "차의과학대학교분당차병원",
        "clCdNm": "종합병원",
        "sido": "경기"
      },
      "geometry": {
        "type": "Point",
        "coordinates": [
          127.125454,
          37.410238
        ]
      }
    },
    {
      "type": "Feature",
      "properties": {
        "name": "참조은병원",
        "clCdNm": "종합병원",
        "sido": "경기"
      },
      "geometry": {
        "type": "Point",
        "coordinates": [
          127.260254,
          37.410963
        ]
      }
    },
    {
      "type": "Feature",
      "properties": {
        "name": "창원경상국립대학교병원",
        "clCdNm": "종합병원",
        "sido": "경남"
      },
      "geometry": {
        "type": "Point",
        "coordinates": [
          128.707846,
          35.199087
        ]
      }
    },
    {
      "type": "Feature",
      "properties": {
        "name": "창원파티마병원",
        "clCdNm": "종합병원",
        "sido": "경남"
      },
      "geometry": {
        "type": "Point",
        "coordinates": [
          128.645913,
          35.237293
        ]
      }
    },
    {
      "type": "Feature",
      "properties": {
        "name": "창원한마음병원",
        "clCdNm": "종합병원",
        "sido": "경남"
      },
      "geometry": {
        "type": "Point",
        "coordinates": [
          128.699027,
          35.237948
        ]
      }
    },
    {
      "type": "Feature",
      "properties": {
        "name": "첨단종합병원",
        "clCdNm": "종합병원",
        "sido": "전남광주"
      },
      "geometry": {
        "type": "Point",
        "coordinates": [
          126.845304,
          35.221109
        ]
      }
    },
    {
      "type": "Feature",
      "properties": {
        "name": "청주성모병원",
        "clCdNm": "종합병원",
        "sido": "충북"
      },
      "geometry": {
        "type": "Point",
        "coordinates": [
          127.485654,
          36.673797
        ]
      }
    },
    {
      "type": "Feature",
      "properties": {
        "name": "추병원",
        "clCdNm": "종합병원",
        "sido": "경기"
      },
      "geometry": {
        "type": "Point",
        "coordinates": [
          127.045072,
          37.74979
        ]
      }
    },
    {
      "type": "Feature",
      "properties": {
        "name": "충청남도 공주의료원",
        "clCdNm": "종합병원",
        "sido": "충남"
      },
      "geometry": {
        "type": "Point",
        "coordinates": [
          127.109495,
          36.458878
        ]
      }
    },
    {
      "type": "Feature",
      "properties": {
        "name": "충청남도 서산의료원",
        "clCdNm": "종합병원",
        "sido": "충남"
      },
      "geometry": {
        "type": "Point",
        "coordinates": [
          126.465258,
          36.775584
        ]
      }
    },
    {
      "type": "Feature",
      "properties": {
        "name": "충청남도 천안의료원",
        "clCdNm": "종합병원",
        "sido": "충남"
      },
      "geometry": {
        "type": "Point",
        "coordinates": [
          127.179413,
          36.775491
        ]
      }
    },
    {
      "type": "Feature",
      "properties": {
        "name": "충청남도 홍성의료원",
        "clCdNm": "종합병원",
        "sido": "충남"
      },
      "geometry": {
        "type": "Point",
        "coordinates": [
          126.674379,
          36.59922
        ]
      }
    },
    {
      "type": "Feature",
      "properties": {
        "name": "충청북도 청주의료원",
        "clCdNm": "종합병원",
        "sido": "충북"
      },
      "geometry": {
        "type": "Point",
        "coordinates": [
          127.473033,
          36.640203
        ]
      }
    },
    {
      "type": "Feature",
      "properties": {
        "name": "충청북도 충주의료원",
        "clCdNm": "종합병원",
        "sido": "충북"
      },
      "geometry": {
        "type": "Point",
        "coordinates": [
          127.970612,
          36.979651
        ]
      }
    },
    {
      "type": "Feature",
      "properties": {
        "name": "포항성모병원",
        "clCdNm": "종합병원",
        "sido": "경북"
      },
      "geometry": {
        "type": "Point",
        "coordinates": [
          129.339953,
          36.0159
        ]
      }
    },
    {
      "type": "Feature",
      "properties": {
        "name": "하남성심병원",
        "clCdNm": "종합병원",
        "sido": "전남광주"
      },
      "geometry": {
        "type": "Point",
        "coordinates": [
          126.800959,
          35.166656
        ]
      }
    },
    {
      "type": "Feature",
      "properties": {
        "name": "학교법인 가톨릭학원 가톨릭대학교 대전성모병원",
        "clCdNm": "종합병원",
        "sido": "대전"
      },
      "geometry": {
        "type": "Point",
        "coordinates": [
          127.420163,
          36.323042
        ]
      }
    },
    {
      "type": "Feature",
      "properties": {
        "name": "학교법인 을지학원 대전을지대학교병원",
        "clCdNm": "종합병원",
        "sido": "대전"
      },
      "geometry": {
        "type": "Point",
        "coordinates": [
          127.381989,
          36.35531
        ]
      }
    },
    {
      "type": "Feature",
      "properties": {
        "name": "학교법인 을지학원 의정부을지대학교병원",
        "clCdNm": "종합병원",
        "sido": "경기"
      },
      "geometry": {
        "type": "Point",
        "coordinates": [
          127.0507,
          37.751818
        ]
      }
    },
    {
      "type": "Feature",
      "properties": {
        "name": "학교법인 춘해병원",
        "clCdNm": "종합병원",
        "sido": "부산"
      },